$ADVER,3080,2.4P
$GPRMC,134730.361,A,5540.3220,N,01231.2858,E,1.06,86.57,041112,,,A*55
$GPGGA,134731.361,5540.3252,N,01231.2946,E,1,10,0.8,36.1,M,41.5,M,,0000*6C
$GPGSA,A,3,03,22,06,19,11,14,32,01,28,18,,,1.8,0.8,1.6*3F
$GPRMC,134731.361,A,5540.3252,N,01231.2946,E,1.42,93.80,041112,,,A*51
$GPVTG,93.80,T,,M,1.42,N,2.6,K,A*3C
$GPGGA,134732.000,5540.3244,N,01231.2941,E,1,10,0.8,31.7,M,41.5,M,,0000*6A
$GPGSA,A,3,03,22,06,19,11,14,32,01,28,18,,,1.8,0.8,1.6*3F
$GPGSV,3,1,11,19,65,185,25,11,54,274,22,22,51,072,28,01,37,274,18*7D
$GPGSV,3,2,11,03,35,170,25,14,33,110,26,32,26,212,20,06,24,158,22*77
$GPGSV,3,3,11,28,22,320,19,18,15,055,19,09,07,033,*41
$GPRMC,134732.000,A,5540.3244,N,01231.2941,E,1.75,90.16,041112,,,A*5E
$GPVTG,90.16,T,,M,1.75,N,3.2,K,A*31
$GPGGA,134733.000,5540.3231,N,01231.2938,E,1,10,0.8,24.9,M,41.5,M,,0000*6D
$GPGSA,A,3,03,22,06,19,11,14,32,01,28,18,,,1.8,0.8,1.6*3F
$GPRMC,134733.000,A,5540.3231,N,01231.2938,E,1.83,113.00,041112,,,A*67
$GPVTG,113.00,T,,M,1.83,N,3.4,K,A*03
$GPGGA,134734.000,5540.3233,N,01231.2941,E,1,10,0.8,23.7,M,41.5,M,,0000*6F
$GPGSA,A,3,03,22,06,19,11,14,32,01,28,18,,,1.8,0.8,1.6*3F
$GPRMC,134734.000,A,5540.3233,N,01231.2941,E,1.23,107.22,041112,,,A*63
$GPVTG,107.22,T,,M,1.23,N,2.3,K,A*0A
$GPGGA,134735.000,5540.3232,N,01231.2946,E,1,10,0.8,23.6,M,41.5,M,,0000*69
$GPGSA,A,3,03,22,06,19,11,14,32,01,28,18,,,1.8,0.8,1.6*3F
$GPRMC,134735.000,A,5540.3232,N,01231.2946,E,1.97,88.98,041112,,,A*5C
$GPVTG,88.98,T,,M,1.97,N,3.6,K,A*36
$GPGGA,134736.000,5540.3238,N,01231.2961,E,1,09,1.0,23.7,M,41.5,M,,0000*65
$GPGSA,A,3,03,22,06,19,11,14,32,01,28,,,,2.1,1.0,1.9*3A
$GPRMC,134736.000,A,5540.3238,N,01231.2961,E,2.44,84.72,041112,,,A*55
$GPVTG,84.72,T,,M,2.44,N,4.5,K,A*37
$GPGGA,134737.000,5540.3247,N,01231.2959,E,1,09,1.0,22.6,M,41.5,M,,0000*67
$GPGSA,A,3,03,22,06,19,11,14,32,01,28,,,,2.1,1.0,1.9*3A
$GPGSV,3,1,11,19,65,185,20,11,54,274,21,22,51,072,30,01,37,274,19*73
$GPGSV,3,2,11,03,35,170,25,14,33,110,26,32,26,212,19,06,24,158,22*7D
$GPGSV,3,3,11,28,22,320,26,18,15,055,,09,07,033,*45
$GPRMC,134737.000,A,5540.3247,N,01231.2959,E,2.56,78.18,041112,,,A*5B
$GPVTG,78.18,T,,M,2.56,N,4.7,K,A*39
$GPGGA,134738.000,5540.3246,N,01231.2970,E,1,10,0.8,20.6,M,41.5,M,,0000*61
$GPGSA,A,3,03,22,06,19,11,14,32,01,28,18,,,1.8,0.8,1.6*3F
$GPRMC,134738.000,A,5540.3246,N,01231.2970,E,2.26,97.21,041112,,,A*52
$GPVTG,97.21,T,,M,2.26,N,4.2,K,A*30
$GPGGA,134739.000,5540.3248,N,01231.2980,E,1,10,0.8,20.2,M,41.5,M,,0000*65
$GPGSA,A,3,03,22,06,19,11,14,32,01,28,18,,,1.8,0.8,1.6*3F
$GPRMC,134739.000,A,5540.3248,N,01231.2980,E,2.49,85.26,041112,,,A*5F
$GPVTG,85.26,T,,M,2.49,N,4.6,K,A*39
$GPGGA,134740.000,5540.3248,N,01231.2992,E,1,09,0.9,20.2,M,41.5,M,,0000*61
$GPGSA,A,3,03,22,06,19,11,14,32,28,18,,,,1.9,0.9,1.6*3E
$GPRMC,134740.000,A,5540.3248,N,01231.2992,E,2.02,106.22,041112,,,A*63
$GPVTG,106.22,T,,M,2.02,N,3.7,K,A*0E
$GPGGA,134741.000,5540.3247,N,01231.3001,E,1,08,1.0,19.0,M,41.5,M,,0000*6C
$GPGSA,A,3,03,22,06,19,14,32,28,18,,,,,2.1,1.0,1.8*33
$GPRMC,134741.000,A,5540.3247,N,01231.3001,E,1.94,108.84,041112,,,A*61
$GPVTG,108.84,T,,M,1.94,N,3.6,K,A*01
$GPGGA,134742.000,5540.3245,N,01231.3009,E,1,07,1.0,17.9,M,41.5,M,,0000*6D
$GPGSA,A,3,03,22,19,14,32,28,18,,,,,,2.2,1.0,2.0*3D
$GPGSV,3,1,11,19,65,185,33,11,54,274,,22,51,072,35,01,37,274,*7F
$GPGSV,3,2,11,03,35,170,35,14,33,110,31,32,26,212,28,06,24,158,*78
$GPGSV,3,3,11,28,22,320,25,18,15,055,22,09,07,033,24*40
$GPRMC,134742.000,A,5540.3245,N,01231.3009,E,1.20,128.27,041112,,,A*6C
$GPVTG,128.27,T,,M,1.20,N,2.2,K,A*00
$GPGGA,134743.000,5540.3243,N,01231.3013,E,1,08,1.0,17.6,M,41.5,M,,0000*61
$GPGSA,A,3,03,22,06,19,14,32,28,18,,,,,2.1,1.0,1.8*33
$GPRMC,134743.000,A,5540.3243,N,01231.3013,E,0.65,135.91,041112,,,A*61
$GPVTG,135.91,T,,M,0.65,N,1.2,K,A*02
$GPGGA,134744.000,5540.3241,N,01231.3016,E,1,08,1.0,17.7,M,41.5,M,,0000*60
$GPGSA,A,3,03,22,06,19,14,32,28,18,,,,,2.1,1.0,1.8*33
$GPRMC,134744.000,A,5540.3241,N,01231.3016,E,1.02,153.79,041112,,,A*67
$GPVTG,153.79,T,,M,1.02,N,1.9,K,A*0F
$GPGGA,134745.000,5540.3237,N,01231.3015,E,1,09,0.9,17.6,M,41.5,M,,0000*6B
$GPGSA,A,3,03,22,06,19,01,14,32,28,18,,,,2.0,0.9,1.8*3B
$GPRMC,134745.000,A,5540.3237,N,01231.3015,E,0.90,179.89,041112,,,A*69
$GPVTG,179.89,T,,M,0.90,N,1.7,K,A*0C
$GPGGA,134746.000,5540.3235,N,01231.3012,E,1,09,0.9,17.9,M,41.5,M,,0000*62
$GPGSA,A,3,03,22,06,19,01,14,32,28,18,,,,2.0,0.9,1.8*3B
$GPRMC,134746.000,A,5540.3235,N,01231.3012,E,1.36,204.84,041112,,,A*66
$GPVTG,204.84,T,,M,1.36,N,2.5,K,A*04
$GPGGA,134747.000,5540.3231,N,01231.3010,E,1,09,1.0,17.4,M,41.5,M,,0000*60
$GPGSA,A,3,03,22,06,19,01,14,32,11,28,,,,2.1,1.0,1.9*3A
$GPGSV,3,1,11,19,65,185,31,11,54,274,17,22,51,072,28,01,37,274,15*73
$GPGSV,3,2,11,03,35,170,32,14,33,110,33,32,26,212,24,06,24,158,32*70
$GPGSV,3,3,11,28,22,320,20,18,15,055,,09,07,033,16*44
$GPVTG,174.80,T,,M,1.49,N,2.8,K,A*01
$GPGGA,134748.000,5540.3227,N,01231.3006,E,1,10,0.8,16.5,M,41.5,M,,0000*6E
$GPGSA,A,3,03,22,06,19,01,14,32,11,28,18,,,1.8,0.8,1.6*3F
$GPRMC,134748.000,A,5540.3227,N,01231.3006,E,1.61,203.73,041112,,,A*63
$GPVTG,203.73,T,,M,1.61,N,3.0,K,A*0D
$GPGGA,134749.000,5540.3225,N,01231.2999,E,1,10,0.8,16.3,M,41.5,M,,0000*65
$GPGSA,A,3,03,22,06,19,01,14,32,11,28,18,,,1.8,0.8,1.6*3F
$GPRMC,134749.000,A,5540.3225,N,01231.2999,E,1.25,199.58,041112,,,A*67
$GPVTG,199.58,T,,M,1.25,N,2.3,K,A*06
$GPGGA,134750.000,5540.3221,N,01231.2994,E,1,10,0.8,15.9,M,41.5,M,,0000*6D
$GPGSA,A,3,03,22,06,19,01,14,32,11,28,18,,,1.8,0.8,1.6*3F
$GPRMC,134750.000,A,5540.3221,N,01231.2994,E,1.70,198.71,041112,,,A*6C
$GPVTG,198.71,T,,M,1.70,N,3.1,K,A*0F
$GPGGA,134751.000,5540.3216,N,01231.2991,E,1,10,0.8,15.5,M,41.5,M,,0000*61
$GPGSA,A,3,03,22,06,19,01,14,32,11,28,18,,,1.8,0.8,1.6*3F
$GPRMC,134751.000,A,5540.3216,N,01231.2991,E,1.84,198.52,041112,,,A*66
$GPVTG,198.52,T,,M,1.84,N,3.4,K,A*00
$GPGGA,134752.000,5540.3212,N,01231.2984,E,1,10,0.8,15.3,M,41.5,M,,0000*64
$GPGSA,A,3,03,22,06,19,01,14,32,11,28,18,,,1.8,0.8,1.6*3F
$GPGSV,3,1,12,19,65,185,34,11,54,274,27,22,51,072,29,01,37,274,25*74
$GPGSV,3,2,12,03,35,170,32,14,33,110,30,32,26,212,31,06,24,158,23*74
$GPGSV,3,3,12,28,22,320,24,18,15,055,23,09,07,033,16,33,00,000,23*73
$GPRMC,134752.000,A,5540.3212,N,01231.2984,E,1.57,218.08,041112,,,A*6F
$GPVTG,218.08,T,,M,1.57,N,2.9,K,A*06
$GPGGA,134753.000,5540.3206,N,01231.2981,E,1,10,0.8,15.0,M,41.5,M,,0000*66
$GPGSA,A,3,03,22,06,19,01,14,32,11,28,18,,,1.8,0.8,1.6*3F
$GPRMC,134753.000,A,5540.3206,N,01231.2981,E,1.70,214.58,041112,,,A*62
$GPVTG,214.58,T,,M,1.70,N,3.2,K,A*00
$GPGGA,134754.000,5540.3202,N,01231.2975,E,1,09,1.0,15.2,M,41.5,M,,0000*6D
$GPGSA,A,3,03,22,06,19,01,14,32,11,18,,,,2.0,1.0,1.8*39
$GPRMC,134754.000,A,5540.3202,N,01231.2975,E,1.79,205.27,041112,,,A*6B
$GPVTG,205.27,T,,M,1.79,N,3.3,K,A*00
$GPGGA,134755.000,5540.3198,N,01231.2971,E,1,09,1.0,15.2,M,41.5,M,,0000*68
$GPGSA,A,3,03,22,06,19,01,14,32,11,18,,,,2.0,1.0,1.8*39
$GPRMC,134755.000,A,5540.3198,N,01231.2971,E,1.42,197.75,041112,,,A*69
$GPVTG,197.75,T,,M,1.42,N,2.6,K,A*03
$GPGGA,134756.000,5540.3194,N,01231.2967,E,1,09,1.0,15.2,M,41.5,M,,0000*60
$GPGSA,A,3,03,22,06,19,01,14,32,11,18,,,,2.0,1.0,1.8*39
$GPRMC,134756.000,A,5540.3194,N,01231.2967,E,1.24,192.53,041112,,,A*60
$GPVTG,192.53,T,,M,1.24,N,2.3,K,A*07
$GPGGA,134757.000,5540.3191,N,01231.2965,E,1,10,0.8,15.3,M,41.5,M,,0000*66
$GPGSA,A,3,03,22,06,19,01,14,32,11,28,18,,,1.8,0.8,1.6*3F
$GPGSV,3,1,12,19,65,185,34,11,54,274,23,22,51,072,31,01,37,274,24*78
$GPGSV,3,2,12,03,35,170,36,14,33,110,37,32,26,212,31,06,24,158,30*75
$GPGSV,3,3,12,28,22,320,19,18,15,055,23,09,07,033,18,33,00,000,25*75
$GPRMC,134757.000,A,5540.3191,N,01231.2965,E,1.30,188.68,041112,,,A*60
$GPVTG,188.68,T,,M,1.30,N,2.4,K,A*06
$GPGGA,134758.000,5540.3187,N,01231.2963,E,1,10,0.8,15.0,M,41.5,M,,0000*6B
$GPGSA,A,3,03,22,06,19,01,14,32,11,28,18,,,1.8,0.8,1.6*3F
$GPRMC,134758.000,A,5540.3187,N,01231.2963,E,1.13,202.62,041112,,,A*64
$GPVTG,202.62,T,,M,1.13,N,2.1,K,A*09
$GPGGA,134759.000,5540.3186,N,01231.2959,E,1,10,0.8,14.9,M,41.5,M,,0000*6A
$GPGSA,A,3,03,22,06,19,01,14,32,11,28,18,,,1.8,0.8,1.6*3F
$GPRMC,134759.000,A,5540.3186,N,01231.2959,E,1.35,218.48,041112,,,A*6A
$GPVTG,218.48,T,,M,1.35,N,2.5,K,A*0A
$GPGGA,134800.000,5540.3182,N,01231.2953,E,1,10,0.8,14.4,M,41.5,M,,0000*6A
$GPGSA,A,3,03,22,06,19,01,14,32,11,28,18,,,1.8,0.8,1.6*3F
$GPRMC,134800.000,A,5540.3182,N,01231.2953,E,1.14,232.39,041112,,,A*6A
$GPVTG,232.39,T,,M,1.14,N,2.1,K,A*03
$GPGGA,134801.000,5540.3180,N,01231.2947,E,1,10,0.8,13.9,M,41.5,M,,0000*66
$GPGSA,A,3,03,22,06,19,01,14,32,11,28,18,,,1.8,0.8,1.6*3F
$GPRMC,134801.000,A,5540.3180,N,01231.2947,E,1.11,229.99,041112,,,A*69
$GPVTG,229.99,T,,M,1.11,N,2.1,K,A*06
$GPGGA,134802.000,5540.3177,N,01231.2944,E,1,10,0.8,13.8,M,41.5,M,,0000*6F
$GPGSA,A,3,03,22,06,19,01,14,32,11,28,18,,,1.8,0.8,1.6*3F
$GPGSV,3,1,11,19,65,185,34,11,54,274,22,22,51,072,27,01,37,274,18*72
$GPGSV,3,2,11,03,35,170,36,14,33,110,31,32,26,212,26,06,24,158,34*72
$GPGSV,3,3,11,28,22,320,20,18,15,055,22,09,07,033,17*45
$GPRMC,134802.000,A,5540.3177,N,01231.2944,E,1.52,200.17,041112,,,A*6B
$GPVTG,200.17,T,,M,1.52,N,2.8,K,A*05
$GPGGA,134803.000,5540.3171,N,01231.2942,E,1,10,0.8,13.6,M,41.5,M,,0000*60
$GPGSA,A,3,03,22,06,19,01,14,32,11,28,18,,,1.8,0.8,1.6*3F
$GPRMC,134803.000,A,5540.3171,N,01231.2942,E,1.96,189.93,041112,,,A*6C
$GPVTG,189.93,T,,M,1.96,N,3.6,K,A*0C
$GPGGA,134804.000,5540.3166,N,01231.2939,E,1,10,0.8,13.2,M,41.5,M,,0000*69
$GPGSA,A,3,03,22,06,19,01,14,32,11,28,18,,,1.8,0.8,1.6*3F
$GPRMC,134804.000,A,5540.3166,N,01231.2939,E,1.36,200.48,041112,,,A*6F
$GPVTG,200.48,T,,M,1.36,N,2.5,K,A*00
$GPGGA,134805.000,5540.3160,N,01231.2940,E,1,10,0.8,12.8,M,41.5,M,,0000*6B
$GPGSA,A,3,03,22,06,19,01,14,32,11,28,18,,,1.8,0.8,1.6*3F
$GPRMC,134805.000,A,5540.3160,N,01231.2940,E,1.31,195.71,041112,,,A*64
$GPVTG,195.71,T,,M,1.31,N,2.4,K,A*03
$GPGGA,134806.000,5540.3152,N,01231.2945,E,1,10,0.8,12.8,M,41.5,M,,0000*6C
$GPGSA,A,3,03,22,06,19,01,14,32,11,28,18,,,1.8,0.8,1.6*3F
$GPRMC,134806.000,A,5540.3152,N,01231.2945,E,1.88,191.48,041112,,,A*6F
$GPVTG,191.48,T,,M,1.88,N,3.5,K,A*0F
$GPGGA,134807.000,5540.3144,N,01231.2954,E,1,09,1.0,13.9,M,41.5,M,,0000*6B
$GPGSA,A,3,03,22,06,19,01,14,32,11,18,,,,2.0,1.0,1.8*39
$GPGSV,3,1,11,19,65,185,34,11,54,274,23,22,51,072,33,01,37,274,24*79
$GPGSV,3,2,11,03,35,170,22,14,33,110,25,32,26,212,18,06,24,158,21*7B
$GPGSV,3,3,11,28,22,320,12,18,15,055,17,09,07,033,17*42
$GPVTG,180.71,T,,M,0.98,N,1.8,K,A*0A
$GPGGA,134808.000,5540.3133,N,01231.2962,E,1,07,1.1,15.0,M,41.5,M,,0000*61
$GPGSA,A,3,03,22,19,01,32,11,18,,,,,,2.2,1.1,1.9*38
$GPRMC,134808.000,A,5540.3133,N,01231.2962,E,2.20,183.93,041112,,,A*67
$GPVTG,183.93,T,,M,2.20,N,4.1,K,A*08
$GPGGA,134809.000,5540.3125,N,01231.2966,E,1,08,1.1,15.2,M,41.5,M,,0000*6E
$GPGSA,A,3,03,22,19,01,14,32,11,18,,,,,2.2,1.1,1.9*3D
$GPRMC,134809.000,A,5540.3125,N,01231.2966,E,3.06,169.62,041112,,,A*6A
$GPVTG,169.62,T,,M,3.06,N,5.7,K,A*00
$GPGGA,134810.000,5540.3118,N,01231.2972,E,1,06,1.2,15.8,M,41.5,M,,0000*6A
$GPGSA,A,3,03,22,01,14,32,18,,,,,,,2.9,1.2,2.6*31
$GPRMC,134810.000,A,5540.3118,N,01231.2972,E,3.73,163.95,041112,,,A*69
$GPVTG,163.95,T,,M,3.73,N,6.9,K,A*0D
$GPGGA,134811.000,5540.3106,N,01231.2975,E,1,03,2.9,16.8,M,41.5,M,,0000*6D
$GPGSA,A,2,03,32,18,,,,,,,,,,3.1,2.9,1.0*30
$GPRMC,134811.000,A,5540.3106,N,01231.2975,E,4.13,182.17,041112,,,A*64
$GPVTG,182.17,T,,M,4.13,N,7.6,K,N*08
$GPGGA,134812.000,5540.3094,N,01231.2974,E,6,00,50.0,16.8,M,41.5,M,,0000*5F
$GPGSA,A,2,,,,,,,,,,,,,50.0,50.0,50.0*06
$GPGSV,3,1,11,19,65,185,09,11,54,274,07,22,51,072,07,01,37,274,*70
$GPGSV,3,2,11,03,35,170,12,14,33,110,11,32,26,212,15,06,24,158,*71
$GPGSV,3,3,11,28,22,320,,18,15,055,,09,07,033,15*45
$GPRMC,134812.000,A,5540.3094,N,01231.2974,E,4.13,182.17,041112,,,E*68
$GPVTG,182.17,T,,M,4.13,N,7.6,K,N*08
$GPGGA,134813.000,5540.3083,N,01231.2974,E,6,00,50.0,16.9,M,41.5,M,,0000*59
$GPGSA,A,2,,,,,,,,,,,,,50.0,50.0,50.0*06
$GPRMC,134813.000,A,5540.3083,N,01231.2974,E,4.13,182.17,041112,,,E*6F
$GPVTG,182.17,T,,M,4.13,N,7.6,K,N*08
$GPGGA,134814.000,5540.3071,N,01231.2973,E,6,00,50.0,16.9,M,41.5,M,,0000*54
$GPGSA,A,2,,,,,,,,,,,,,50.0,50.0,50.0*06
$GPRMC,134814.000,A,5540.3071,N,01231.2973,E,4.13,182.17,041112,,,E*62
$GPVTG,182.17,T,,M,4.13,N,7.6,K,N*08
$GPGGA,134815.000,5540.3060,N,01231.2972,E,6,00,50.0,16.9,M,41.5,M,,0000*54
$GPGSA,A,2,,,,,,,,,,,,,50.0,50.0,50.0*06
$GPRMC,134815.000,A,5540.3060,N,01231.2972,E,4.13,182.17,041112,,,E*62
$GPVTG,182.17,T,,M,4.13,N,7.6,K,N*08
$GPGGA,134816.000,5540.3049,N,01231.2971,E,6,00,50.0,17.0,M,41.5,M,,0000*57
$GPGSA,A,2,,,,,,,,,,,,,50.0,50.0,50.0*06
$GPRMC,134816.000,A,5540.3049,N,01231.2971,E,4.13,182.17,041112,,,E*69
$GPVTG,182.17,T,,M,4.13,N,7.6,K,N*08
$GPGGA,134817.000,5540.3037,N,01231.2971,E,6,00,50.0,17.0,M,41.5,M,,0000*5F
$GPGSA,A,2,,,,,,,,,,,,,50.0,50.0,50.0*06
$GPGSV,3,1,11,19,65,185,,11,54,274,,22,51,072,,01,37,274,*79
$GPGSV,3,2,11,03,35,170,,14,33,110,,32,26,212,,06,24,158,*76
$GPGSV,3,3,11,28,22,320,,18,15,055,,09,07,033,*41
$GPRMC,134817.000,A,5540.3037,N,01231.2971,E,4.13,182.17,041112,,,E*61
$GPVTG,182.17,T,,M,4.13,N,7.6,K,N*08
$GPGGA,134818.000,5540.3026,N,01231.2970,E,6,00,50.0,17.0,M,41.5,M,,0000*51
$GPGSA,A,2,,,,,,,,,,,,,50.0,50.0,50.0*06
$GPRMC,134818.000,A,5540.3026,N,01231.2970,E,4.13,182.17,041112,,,E*6F
$GPVTG,182.17,T,,M,4.13,N,7.6,K,N*08
$GPGGA,134819.000,5540.3014,N,01231.2969,E,6,00,50.0,17.0,M,41.5,M,,0000*59
$GPGSA,A,2,,,,,,,,,,,,,50.0,50.0,50.0*06
$GPRMC,134819.000,A,5540.3014,N,01231.2969,E,4.13,182.17,041112,,,E*67
$GPVTG,182.17,T,,M,4.13,N,7.6,K,N*08
$GPGGA,134820.000,5540.3003,N,01231.2968,E,6,00,50.0,17.1,M,41.5,M,,0000*55
$GPGSA,A,2,,,,,,,,,,,,,50.0,50.0,50.0*06
$GPRMC,134820.000,A,5540.3003,N,01231.2968,E,4.13,182.17,041112,,,E*6A
$GPVTG,182.17,T,,M,4.13,N,7.6,K,N*08
$GPGGA,134821.000,5540.2991,N,01231.2967,E,6,00,50.0,17.1,M,41.5,M,,0000*58
$GPGSA,A,2,,,,,,,,,,,,,50.0,50.0,50.0*06
$GPRMC,134821.000,A,5540.2991,N,01231.2967,E,4.13,182.17,041112,,,E*67
$GPVTG,182.17,T,,M,4.13,N,7.6,K,N*08
$GPGGA,134822.000,5540.2980,N,01231.2967,E,6,00,50.0,17.1,M,41.5,M,,0000*5B
$GPGSA,A,2,,,,,,,,,,,,,50.0,50.0,50.0*06
$GPGSV,3,1,11,19,65,185,,11,54,274,,22,51,072,,01,37,274,*79
$GPGSV,3,2,11,03,35,170,,14,33,110,,32,26,212,,06,24,158,*76
$GPGSV,3,3,11,28,22,320,,18,15,055,,09,07,033,*41
$GPRMC,134822.000,A,5540.2980,N,01231.2967,E,4.13,182.17,041112,,,E*64
$GPVTG,182.17,T,,M,4.13,N,7.6,K,N*08
$GPGGA,134823.000,5540.2968,N,01231.2966,E,6,00,50.0,17.2,M,41.5,M,,0000*5E
$GPGSA,A,2,,,,,,,,,,,,,50.0,50.0,50.0*06
$GPRMC,134823.000,A,5540.2968,N,01231.2966,E,4.13,182.17,041112,,,E*62
$GPVTG,182.17,T,,M,4.13,N,7.6,K,N*08
$GPGGA,134824.000,5540.2957,N,01231.2965,E,6,00,50.0,17.2,M,41.5,M,,0000*56
$GPGSA,A,2,,,,,,,,,,,,,50.0,50.0,50.0*06
$GPRMC,134824.000,A,5540.2957,N,01231.2965,E,4.13,182.17,041112,,,E*6A
$GPVTG,182.17,T,,M,4.13,N,7.6,K,N*08
$GPGGA,134825.000,5540.2946,N,01231.2964,E,6,00,50.0,17.2,M,41.5,M,,0000*56
$GPGSA,A,2,,,,,,,,,,,,,50.0,50.0,50.0*06
$GPRMC,134825.000,A,5540.2946,N,01231.2964,E,4.13,182.17,041112,,,E*6A
$GPVTG,182.17,T,,M,4.13,N,7.6,K,N*08
$GPGGA,134842.000,5540.2915,N,01231.2499,E,1,03,50.0,25.5,M,41.5,M,,0000*5C
$GPGSA,A,2,03,06,32,,,,,,,,,,50.0,50.0,1.0*36
$GPGSV,3,1,11,19,65,185,,11,54,274,,22,51,072,,01,37,274,*79
$GPGSV,3,2,11,03,35,170,27,14,33,110,,32,26,212,23,06,24,158,25*75
$GPGSV,3,3,11,28,22,320,,18,15,055,,09,07,033,*41
$GPRMC,134842.000,A,5540.2915,N,01231.2499,E,3.92,259.69,041112,,,A*64
$GPGGA,134843.000,5540.2806,N,01231.2594,E,1,03,50.0,22.4,M,41.5,M,,0000*54
$GPGSA,A,2,03,06,32,,,,,,,,,,50.0,50.0,1.0*36
$GPRMC,134843.000,A,5540.2806,N,01231.2594,E,4.24,221.66,041112,,,A*60
$GPVTG,221.66,T,,M,4.24,N,7.9,K,N*0F
$GPGGA,134844.000,5540.2778,N,01231.2591,E,1,03,50.0,21.8,M,41.5,M,,0000*5F
$GPGSA,A,2,03,06,32,,,,,,,,,,50.0,50.0,1.0*36
$GPRMC,134844.000,A,5540.2778,N,01231.2591,E,3.97,207.99,041112,,,A*6F
$GPVTG,207.99,T,,M,3.97,N,7.4,K,N*09
$GPGGA,134845.000,5540.2803,N,01231.2663,E,1,03,50.0,19.3,M,41.5,M,,0000*53
$GPGSA,A,2,03,06,32,,,,,,,,,,50.0,50.0,1.0*36
$GPRMC,134845.000,A,5540.2803,N,01231.2663,E,2.03,195.73,041112,,,A*63
$GPVTG,195.73,T,,M,2.03,N,3.8,K,N*01
$GPGGA,134846.000,5540.2880,N,01231.2723,E,1,08,1.3,13.3,M,41.5,M,,0000*68
$GPGSA,A,3,03,06,32,11,19,14,01,22,,,,,3.0,1.3,2.7*3E
$GPRMC,134846.000,A,5540.2880,N,01231.2723,E,3.13,201.76,041112,,,A*65
$GPVTG,201.76,T,,M,3.13,N,5.8,K,A*03
$GPGGA,134847.000,5540.2875,N,01231.2774,E,1,08,1.3,11.9,M,41.5,M,,0000*69
$GPGSA,A,3,03,06,32,11,19,14,01,22,,,,,3.0,1.3,2.7*3E
$GPGSV,3,1,11,19,65,185,31,11,54,274,22,22,51,072,27,01,37,274,23*7F
$GPGSV,3,2,11,03,35,170,34,14,33,110,32,32,26,212,28,06,24,158,35*7C
$GPGSV,3,3,11,28,22,320,,18,15,055,,09,07,033,*41
$GPRMC,134847.000,A,5540.2875,N,01231.2774,E,1.89,189.82,041112,,,A*65
$GPVTG,189.82,T,,M,1.89,N,3.5,K,A*01
$GPGGA,134848.000,5540.2870,N,01231.2803,E,1,08,1.3,9.8,M,41.5,M,,0000*54
$GPGSA,A,3,03,06,32,11,19,14,01,22,,,,,3.0,1.3,2.7*3E
$GPRMC,134848.000,A,5540.2870,N,01231.2803,E,1.64,171.19,041112,,,A*66
$GPVTG,171.19,T,,M,1.64,N,3.0,K,A*02
$GPGGA,134849.000,5540.2854,N,01231.2811,E,1,08,1.3,12.7,M,41.5,M,,0000*65
$GPGSA,A,3,03,06,32,11,19,14,01,22,,,,,3.0,1.3,2.7*3E
$GPRMC,134849.000,A,5540.2854,N,01231.2811,E,1.99,151.52,041112,,,A*6D
$GPVTG,151.52,T,,M,1.99,N,3.7,K,A*0A
$GPGGA,134850.000,5540.2835,N,01231.2839,E,1,09,1.0,17.9,M,41.5,M,,0000*69
$GPGSA,A,3,03,06,32,11,19,14,01,22,18,,,,2.1,1.0,1.8*38
$GPRMC,134850.000,A,5540.2835,N,01231.2839,E,2.03,161.42,041112,,,A*6A
$GPVTG,161.42,T,,M,2.03,N,3.8,K,A*07
$GPGGA,134851.000,5540.2830,N,01231.2856,E,1,09,1.0,17.0,M,41.5,M,,0000*6D
$GPGSA,A,3,03,06,32,11,19,14,01,22,18,,,,2.1,1.0,1.8*38
$GPRMC,134851.000,A,5540.2830,N,01231.2856,E,1.88,138.74,041112,,,A*6E
$GPVTG,138.74,T,,M,1.88,N,3.5,K,A*03
$GPGGA,134852.000,5540.2824,N,01231.2865,E,1,09,1.0,18.0,M,41.5,M,,0000*64
$GPGSA,A,3,03,06,32,11,19,14,01,22,18,,,,2.1,1.0,1.8*38
$GPGSV,3,1,11,19,65,185,24,11,54,274,22,22,51,072,29,01,37,274,21*77
$GPGSV,3,2,11,03,35,170,34,14,33,110,33,32,26,212,18,06,24,158,28*72
$GPGSV,3,3,11,28,22,320,,18,15,055,17,09,07,033,*47
$GPRMC,134852.000,A,5540.2824,N,01231.2865,E,1.93,129.74,041112,,,A*62
$GPVTG,129.74,T,,M,1.93,N,3.6,K,A*0A
$GPGGA,134853.000,5540.2818,N,01231.2877,E,1,09,1.0,18.9,M,41.5,M,,0000*60
$GPGSA,A,3,03,06,32,11,19,14,01,22,18,,,,2.1,1.0,1.8*38
$GPRMC,134853.000,A,5540.2818,N,01231.2877,E,1.39,126.62,041112,,,A*67
$GPVTG,126.62,T,,M,1.39,N,2.6,K,A*03
$GPGGA,134854.000,5540.2811,N,01231.2883,E,1,10,0.8,19.6,M,41.5,M,,0000*6A
$GPGSA,A,3,03,06,32,11,19,14,01,22,18,28,,,1.8,0.8,1.6*3F
$GPRMC,134854.000,A,5540.2811,N,01231.2883,E,1.46,124.95,041112,,,A*60
$GPVTG,124.95,T,,M,1.46,N,2.7,K,A*00
$GPGGA,134855.000,5540.2808,N,01231.2889,E,1,10,0.8,18.9,M,41.5,M,,0000*67
$GPGSA,A,3,03,06,32,11,19,14,01,22,18,28,,,1.8,0.8,1.6*3F
$GPRMC,134855.000,A,5540.2808,N,01231.2889,E,1.42,157.65,041112,,,A*6C
$GPVTG,157.65,T,,M,1.42,N,2.6,K,A*0E
$GPGGA,134856.000,5540.2803,N,01231.2893,E,1,10,0.8,19.4,M,41.5,M,,0000*68
$GPGSA,A,3,03,06,32,11,19,14,01,22,18,28,,,1.8,0.8,1.6*3F
$GPRMC,134856.000,A,5540.2803,N,01231.2893,E,1.73,147.51,041112,,,A*6B
$GPVTG,147.51,T,,M,1.73,N,3.2,K,A*0F
$GPGGA,134857.000,5540.2798,N,01231.2900,E,1,10,0.8,19.2,M,41.5,M,,0000*69
$GPGSA,A,3,03,06,32,11,19,14,01,22,18,28,,,1.8,0.8,1.6*3F
$GPGSV,3,1,11,19,65,185,27,11,54,274,21,22,51,072,37,01,37,274,19*73
$GPGSV,3,2,11,03,35,170,30,14,33,110,34,32,26,212,19,06,24,158,25*7D
$GPGSV,3,3,11,28,22,320,21,18,15,055,26,09,07,033,*46
$GPRMC,134857.000,A,5540.2798,N,01231.2900,E,1.77,140.48,041112,,,A*67
$GPGGA,134858.000,5540.2796,N,01231.2907,E,1,10,0.8,18.9,M,41.5,M,,0000*65
$GPGSA,A,3,03,06,32,11,19,14,01,22,18,28,,,1.8,0.8,1.6*3F
$GPRMC,134858.000,A,5540.2796,N,01231.2907,E,1.95,139.83,041112,,,A*64
$GPVTG,139.83,T,,M,1.95,N,3.6,K,A*05
$GPGGA,134859.000,5540.2792,N,01231.2913,E,1,10,0.8,18.5,M,41.5,M,,0000*69
$GPGSA,A,3,03,06,32,11,19,14,01,22,18,28,,,1.8,0.8,1.6*3F
$GPRMC,134859.000,A,5540.2792,N,01231.2913,E,1.59,153.59,041112,,,A*6F
$GPVTG,153.59,T,,M,1.59,N,2.9,K,A*00
$GPGGA,134900.000,5540.2789,N,01231.2917,E,1,10,0.8,18.2,M,41.5,M,,0000*6D
$GPGSA,A,3,03,06,32,11,19,14,01,22,18,28,,,1.8,0.8,1.6*3F
$GPRMC,134900.000,A,5540.2789,N,01231.2917,E,1.33,150.02,041112,,,A*6D
$GPVTG,150.02,T,,M,1.33,N,2.5,K,A*0D
$GPGGA,134901.000,5540.2785,N,01231.2925,E,1,10,0.8,18.8,M,41.5,M,,0000*6B
$GPGSA,A,3,03,06,32,11,19,14,01,22,18,28,,,1.8,0.8,1.6*3F
$GPRMC,134901.000,A,5540.2785,N,01231.2925,E,2.00,148.75,041112,,,A*6B
$GPVTG,148.75,T,,M,2.00,N,3.7,K,A*04
$GPGGA,134902.000,5540.2781,N,01231.2932,E,1,10,0.8,19.0,M,41.5,M,,0000*63
$GPGSA,A,3,03,06,32,11,19,14,01,22,18,28,,,1.8,0.8,1.6*3F
$GPGSV,3,1,11,19,65,185,28,11,54,274,21,22,51,072,38,01,37,274,20*79
$GPGSV,3,2,11,03,35,170,27,14,33,110,36,32,26,212,24,06,24,158,27*75
$GPGSV,3,3,11,28,22,320,21,18,15,055,18,09,07,033,*4B
$GPRMC,134902.000,A,5540.2781,N,01231.2932,E,1.46,153.85,041112,,,A*6E
$GPVTG,153.85,T,,M,1.46,N,2.7,K,A*01
$GPGGA,134903.000,5540.2778,N,01231.2935,E,1,10,0.8,18.5,M,41.5,M,,0000*67
$GPGSA,A,3,03,06,32,11,19,14,01,22,18,28,,,1.8,0.8,1.6*3F
$GPRMC,134903.000,A,5540.2778,N,01231.2935,E,0.99,147.04,041112,,,A*61
$GPVTG,147.04,T,,M,0.99,N,1.8,K,A*02
$GPGGA,134904.000,5540.2775,N,01231.2936,E,1,10,0.8,17.5,M,41.5,M,,0000*61
$GPGSA,A,3,03,06,32,11,19,14,01,22,18,28,,,1.8,0.8,1.6*3F
$GPRMC,134904.000,A,5540.2775,N,01231.2936,E,0.71,184.83,041112,,,A*6E
$GPVTG,184.83,T,,M,0.71,N,1.3,K,A*0F
$GPGGA,134905.000,5540.2770,N,01231.2939,E,1,10,0.8,17.9,M,41.5,M,,0000*66
$GPGSA,A,3,03,06,32,11,19,14,01,22,18,28,,,1.8,0.8,1.6*3F
$GPRMC,134905.000,A,5540.2770,N,01231.2939,E,1.44,169.52,041112,,,A*6D
$GPVTG,169.52,T,,M,1.44,N,2.7,K,A*00
$GPGGA,134906.000,5540.2768,N,01231.2936,E,1,10,0.8,17.1,M,41.5,M,,0000*6B
$GPGSA,A,3,03,06,32,11,19,14,01,22,18,28,,,1.8,0.8,1.6*3F
$GPRMC,134906.000,A,5540.2768,N,01231.2936,E,1.10,179.32,041112,,,A*6E
$GPVTG,179.32,T,,M,1.10,N,2.0,K,A*01
$GPGGA,134907.000,5540.2764,N,01231.2931,E,1,10,0.8,16.2,M,41.5,M,,0000*63
$GPGSA,A,3,03,06,32,11,19,14,01,22,18,28,,,1.8,0.8,1.6*3F
$GPGSV,3,1,11,19,65,185,29,11,54,274,21,22,51,072,37,01,37,274,20*77
$GPGSV,3,2,11,03,35,170,27,14,33,110,37,32,26,212,24,06,24,158,29*7A
$GPGSV,3,3,11,28,22,320,20,18,15,055,19,09,07,033,*4B
$GPRMC,134907.000,A,5540.2764,N,01231.2931,E,1.46,181.58,041112,,,A*6C
$GPVTG,181.58,T,,M,1.46,N,2.7,K,A*0E
$GPGGA,134908.000,5540.2758,N,01231.2934,E,1,10,0.8,15.6,M,41.5,M,,0000*61
$GPGSA,A,3,03,06,32,11,19,14,01,22,18,28,,,1.8,0.8,1.6*3F
$GPRMC,134908.000,A,5540.2758,N,01231.2934,E,1.05,175.12,041112,,,A*6B
$GPVTG,175.12,T,,M,1.05,N,1.9,K,A*01
$GPGGA,134909.000,5540.2750,N,01231.2943,E,1,10,0.8,18.0,M,41.5,M,,0000*63
$GPGSA,A,3,03,06,32,11,19,14,01,22,18,28,,,1.8,0.8,1.6*3F
$GPRMC,134909.000,A,5540.2750,N,01231.2943,E,0.35,191.48,041112,,,A*65
$GPVTG,191.48,T,,M,0.35,N,0.7,K,A*09
$GPGGA,134910.000,5540.2746,N,01231.2943,E,1,10,0.8,19.4,M,41.5,M,,0000*69
$GPGSA,A,3,03,06,32,11,19,14,01,22,18,28,,,1.8,0.8,1.6*3F
$GPRMC,134910.000,A,5540.2746,N,01231.2943,E,0.49,168.48,041112,,,A*67
$GPVTG,168.48,T,,M,0.49,N,0.9,K,A*0A
$GPGGA,134911.000,5540.2741,N,01231.2953,E,1,10,0.8,19.3,M,41.5,M,,0000*69
$GPGSA,A,3,03,06,32,11,19,14,01,22,18,28,,,1.8,0.8,1.6*3F
$GPRMC,134911.000,A,5540.2741,N,01231.2953,E,1.37,151.12,041112,,,A*6D
$GPVTG,151.12,T,,M,1.37,N,2.5,K,A*09
$GPGGA,134912.000,5540.2737,N,01231.2956,E,1,10,0.8,20.5,M,41.5,M,,0000*62
$GPGSA,A,3,03,06,32,11,19,14,01,22,18,28,,,1.8,0.8,1.6*3F
$GPGSV,3,1,11,19,65,185,23,11,54,274,21,22,51,072,37,01,37,274,24*79
$GPGSV,3,2,11,03,35,170,17,14,33,110,31,32,26,212,22,06,24,158,20*70
$GPGSV,3,3,11,28,22,320,20,18,15,055,20,09,07,033,*41
$GPRMC,134912.000,A,5540.2737,N,01231.2956,E,1.10,163.23,041112,,,A*6C
$GPVTG,163.23,T,,M,1.10,N,2.0,K,A*0A
$GPGGA,134913.000,5540.2734,N,01231.2958,E,1,10,0.8,21.0,M,41.5,M,,0000*6A
$GPGSA,A,3,03,06,32,11,19,14,01,22,18,28,,,1.8,0.8,1.6*3F
$GPRMC,134913.000,A,5540.2734,N,01231.2958,E,0.20,158.68,041112,,,A*65
$GPVTG,158.68,T,,M,0.20,N,0.4,K,A*09
$GPGGA,134914.000,5540.2737,N,01231.2955,E,1,10,0.8,21.1,M,41.5,M,,0000*62
$GPGSA,A,3,03,06,32,11,19,14,01,22,18,28,,,1.8,0.8,1.6*3F
$GPRMC,134914.000,A,5540.2737,N,01231.2955,E,0.49,333.52,041112,,,A*65
$GPVTG,333.52,T,,M,0.49,N,0.9,K,A*0D
$GPGGA,134915.000,5540.2737,N,01231.2951,E,1,10,0.8,20.9,M,41.5,M,,0000*6E
$GPGSA,A,3,03,06,32,11,19,14,01,22,18,28,,,1.8,0.8,1.6*3F
$GPRMC,134915.000,A,5540.2737,N,01231.2951,E,0.65,254.57,041112,,,A*6B
$GPVTG,254.57,T,,M,0.65,N,1.2,K,A*0C
$GPGGA,134916.000,5540.2736,N,01231.2945,E,1,10,0.8,20.6,M,41.5,M,,0000*66
$GPGSA,A,3,03,06,32,11,19,14,01,22,18,28,,,1.8,0.8,1.6*3F
$GPRMC,134916.000,A,5540.2736,N,01231.2945,E,1.21,233.76,041112,,,A*6F
$GPVTG,233.76,T,,M,1.21,N,2.2,K,A*0C
$GPGGA,134917.000,5540.2735,N,01231.2939,E,1,10,0.8,20.5,M,41.5,M,,0000*6C
$GPGSA,A,3,03,06,32,11,19,14,01,22,18,28,,,1.8,0.8,1.6*3F
$GPGSV,3,1,11,19,65,185,34,11,54,274,26,22,51,072,29,01,37,274,30*72
$GPGSV,3,2,11,03,35,170,32,14,33,110,31,32,26,212,32,06,24,158,28*7E
$GPGSV,3,3,11,28,22,320,20,18,15,055,20,09,07,033,*41
$GPVTG,243.86,T,,M,1.20,N,2.2,K,A*05
$GPGGA,134918.000,5540.2732,N,01231.2932,E,1,10,0.8,20.4,M,41.5,M,,0000*6E
$GPGSA,A,3,03,06,32,11,19,14,01,22,18,28,,,1.8,0.8,1.6*3F
$GPRMC,134918.000,A,5540.2732,N,01231.2932,E,1.65,233.91,041112,,,A*6C
$GPVTG,233.91,T,,M,1.65,N,3.1,K,A*07
$GPGGA,134919.000,5540.2729,N,01231.2926,E,1,10,0.8,20.4,M,41.5,M,,0000*60
$GPGSA,A,3,03,06,32,11,19,14,01,22,18,28,,,1.8,0.8,1.6*3F
$GPRMC,134919.000,A,5540.2729,N,01231.2926,E,1.56,221.47,041112,,,A*6A
$GPVTG,221.47,T,,M,1.56,N,2.9,K,A*06
$GPGGA,134920.000,5540.2726,N,01231.2919,E,1,10,0.8,20.4,M,41.5,M,,0000*69
$GPGSA,A,3,03,06,32,11,19,14,01,22,18,28,,,1.8,0.8,1.6*3F
$GPRMC,134920.000,A,5540.2726,N,01231.2919,E,1.52,227.11,041112,,,A*62
$GPVTG,227.11,T,,M,1.52,N,2.8,K,A*06
$GPGGA,134921.000,5540.2722,N,01231.2914,E,1,10,0.8,20.7,M,41.5,M,,0000*62
$GPGSA,A,3,03,06,32,11,19,14,01,22,18,28,,,1.8,0.8,1.6*3F
$GPRMC,134921.000,A,5540.2722,N,01231.2914,E,2.08,219.13,041112,,,A*69
$GPVTG,219.13,T,,M,2.08,N,3.9,K,A*05
$GPGGA,134922.000,5540.2718,N,01231.2905,E,1,10,0.8,20.6,M,41.5,M,,0000*69
$GPGSA,A,3,03,06,32,11,19,14,01,22,18,28,,,1.8,0.8,1.6*3F
$GPGSV,3,1,12,19,64,184,34,11,55,273,27,22,50,071,29,01,38,274,21*7B
$GPGSV,3,2,12,03,34,170,35,14,34,109,31,32,27,212,27,06,23,158,32*7D
$GPGSV,3,3,12,28,22,319,20,18,14,055,19,09,07,032,18,20,00,227,*7E
$GPRMC,134922.000,A,5540.2718,N,01231.2905,E,1.97,229.06,041112,,,A*61
$GPVTG,229.06,T,,M,1.97,N,3.6,K,A*08
$GPGGA,134923.000,5540.2715,N,01231.2899,E,1,10,0.8,20.3,M,41.5,M,,0000*64
$GPGSA,A,3,03,06,32,11,19,14,01,22,18,28,,,1.8,0.8,1.6*3F
$GPRMC,134923.000,A,5540.2715,N,01231.2899,E,1.13,249.78,041112,,,A*6A
$GPVTG,249.78,T,,M,1.13,N,2.1,K,A*0D
$GPGGA,134924.000,5540.2714,N,01231.2894,E,1,10,0.8,20.6,M,41.5,M,,0000*6A
$GPGSA,A,3,03,06,32,11,19,14,01,22,18,28,,,1.8,0.8,1.6*3F
$GPRMC,134924.000,A,5540.2714,N,01231.2894,E,0.53,308.05,041112,,,A*6A
$GPVTG,308.05,T,,M,0.53,N,1.0,K,A*04
$GPGGA,134925.000,5540.2714,N,01231.2895,E,1,09,1.0,20.6,M,41.5,M,,0000*6B
$GPGSA,A,3,03,06,32,11,19,14,01,22,18,,,,2.1,1.0,1.8*38
$GPRMC,134925.000,A,5540.2714,N,01231.2895,E,0.58,87.45,041112,,,A*51
$GPVTG,87.45,T,,M,0.58,N,1.1,K,A*3E
$GPGGA,134926.000,5540.2716,N,01231.2897,E,1,09,1.0,20.9,M,41.5,M,,0000*67
$GPGSA,A,3,03,06,32,11,19,14,01,22,18,,,,2.1,1.0,1.8*38
$GPRMC,134926.000,A,5540.2716,N,01231.2897,E,0.62,67.88,041112,,,A*54
$GPVTG,67.88,T,,M,0.62,N,1.2,K,A*3B
$GPGGA,134927.000,5540.2717,N,01231.2899,E,1,09,1.0,20.4,M,41.5,M,,0000*64
$GPGSA,A,3,03,06,32,11,19,14,01,22,18,,,,2.1,1.0,1.8*38
$GPGSV,3,1,12,19,64,184,33,11,55,273,33,22,50,071,19,01,38,274,27*7C
$GPGSV,3,2,12,03,34,170,37,14,34,109,20,32,27,212,28,06,23,158,24*77
$GPGSV,3,3,12,28,22,319,,18,14,055,18,09,07,032,19,20,00,227,*7C
$GPRMC,134927.000,A,5540.2717,N,01231.2899,E,0.79,37.30,041112,,,A*56
$GPVTG,37.30,T,,M,0.79,N,1.5,K,A*30
$GPGGA,134928.000,5540.2721,N,01231.2897,E,1,09,1.0,20.0,M,41.5,M,,0000*64
$GPGSA,A,3,03,06,32,11,19,14,01,22,18,,,,2.1,1.0,1.8*38
$GPRMC,134928.000,A,5540.2721,N,01231.2897,E,0.51,342.33,041112,,,A*6A
$GPVTG,342.33,T,,M,0.51,N,0.9,K,A*05
$GPGGA,134929.000,5540.2722,N,01231.2896,E,1,10,0.8,19.9,M,41.5,M,,0000*65
$GPGSA,A,3,03,06,32,11,19,14,01,22,18,28,,,1.8,0.8,1.6*3F
$GPRMC,134929.000,A,5540.2722,N,01231.2896,E,0.30,4.33,041112,,,A*6F
$GPVTG,4.33,T,,M,0.30,N,0.6,K,A*0C
$GPGGA,134930.000,5540.2723,N,01231.2893,E,1,10,0.8,20.1,M,41.5,M,,0000*6B
$GPGSA,A,3,03,06,32,11,19,14,01,22,18,28,,,1.8,0.8,1.6*3F
$GPRMC,134930.000,A,5540.2723,N,01231.2893,E,0.69,248.71,041112,,,A*63
$GPVTG,248.71,T,,M,0.69,N,1.3,K,A*08
$GPGGA,134931.000,5540.2723,N,01231.2888,E,1,10,0.8,19.9,M,41.5,M,,0000*62
$GPGSA,A,3,03,06,32,11,19,14,01,22,18,28,,,1.8,0.8,1.6*3F
$GPRMC,134931.000,A,5540.2723,N,01231.2888,E,0.86,280.43,041112,,,A*6C
$GPVTG,280.43,T,,M,0.86,N,1.6,K,A*09
$GPGGA,134932.000,5540.2722,N,01231.2885,E,1,10,0.8,20.2,M,41.5,M,,0000*6C
$GPGSA,A,3,03,06,32,11,19,14,01,22,18,28,,,1.8,0.8,1.6*3F
$GPGSV,3,1,12,19,64,184,33,11,55,273,32,22,50,071,21,01,38,274,22*73
$GPGSV,3,2,12,03,34,170,34,14,34,109,19,32,27,212,31,06,23,158,30*73
$GPGSV,3,3,12,28,22,319,18,18,14,055,19,09,07,032,19,20,00,227,*74
$GPRMC,134932.000,A,5540.2722,N,01231.2885,E,0.32,280.33,041112,,,A*6B
$GPVTG,280.33,T,,M,0.32,N,0.6,K,A*00
$GPGGA,134933.000,5540.2720,N,01231.2879,E,1,10,0.8,20.4,M,41.5,M,,0000*6A
$GPGSA,A,3,03,06,32,11,19,14,01,22,18,28,,,1.8,0.8,1.6*3F
$GPRMC,134933.000,A,5540.2720,N,01231.2879,E,0.61,298.77,041112,,,A*64
$GPVTG,298.77,T,,M,0.61,N,1.1,K,A*09
$GPGGA,134934.000,5540.2720,N,01231.2876,E,1,10,0.8,20.3,M,41.5,M,,0000*65
$GPGSA,A,3,03,06,32,11,19,14,01,22,18,28,,,1.8,0.8,1.6*3F
$GPRMC,134934.000,A,5540.2720,N,01231.2876,E,0.36,283.28,041112,,,A*6E
$GPVTG,283.28,T,,M,0.36,N,0.7,K,A*0C
$GPGGA,134935.000,5540.2719,N,01231.2875,E,1,09,0.9,20.6,M,41.5,M,,0000*61
$GPGSA,A,3,03,06,32,11,19,14,01,18,28,,,,2.1,0.9,1.9*3B
$GPRMC,134935.000,A,5540.2719,N,01231.2875,E,0.24,187.03,041112,,,A*6B
$GPVTG,187.03,T,,M,0.24,N,0.4,K,A*02
$GPGGA,134936.000,5540.2718,N,01231.2874,E,1,10,0.8,21.1,M,41.5,M,,0000*6D
$GPGSA,A,3,03,06,32,11,19,14,01,22,18,28,,,1.8,0.8,1.6*3F
$GPRMC,134936.000,A,5540.2718,N,01231.2874,E,0.39,194.31,041112,,,A*67
$GPVTG,194.31,T,,M,0.39,N,0.7,K,A*0E
$GPGGA,134937.000,5540.2717,N,01231.2872,E,1,10,0.8,21.2,M,41.5,M,,0000*66
$GPGSA,A,3,03,06,32,11,19,14,01,22,18,28,,,1.8,0.8,1.6*3F
$GPGSV,3,1,12,19,64,183,32,11,55,273,30,22,50,071,19,01,38,274,27*79
$GPGSV,3,2,12,03,34,170,31,14,34,109,19,32,27,212,33,06,23,158,29*7C
$GPGSV,3,3,12,28,22,319,23,18,14,055,18,09,07,032,13,20,00,227,*77
$GPVTG,261.01,T,,M,0.61,N,1.1,K,A*0E
$GPGGA,134938.000,5540.2718,N,01231.2870,E,1,10,0.8,21.2,M,41.5,M,,0000*64
$GPGSA,A,3,03,06,32,11,19,14,01,22,18,28,,,1.8,0.8,1.6*3F
$GPRMC,134938.000,A,5540.2718,N,01231.2870,E,0.52,332.63,041112,,,A*69
$GPVTG,332.63,T,,M,0.52,N,1.0,K,A*0C
$GPGGA,134939.000,5540.2718,N,01231.2869,E,1,08,1.0,21.4,M,41.5,M,,0000*6B
$GPGSA,A,3,03,06,32,11,19,01,22,18,,,,,2.1,1.0,1.8*3D
$GPRMC,134939.000,A,5540.2718,N,01231.2869,E,0.11,197.12,041112,,,A*6C
$GPVTG,197.12,T,,M,0.11,N,0.2,K,A*03
$GPGGA,134940.000,5540.2717,N,01231.2868,E,1,08,1.0,21.8,M,41.5,M,,0000*67
$GPGSA,A,3,03,06,32,11,19,01,22,18,,,,,2.1,1.0,1.8*3D
$GPRMC,134940.000,A,5540.2717,N,01231.2868,E,0.27,192.61,041112,,,A*68
$GPVTG,192.61,T,,M,0.27,N,0.5,K,A*00
$GPGGA,134941.000,5540.2716,N,01231.2868,E,1,08,1.0,22.2,M,41.5,M,,0000*6E
$GPGSA,A,3,03,06,32,11,19,01,22,18,,,,,2.1,1.0,1.8*3D
$GPRMC,134941.000,A,5540.2716,N,01231.2868,E,0.36,195.24,041112,,,A*6E
$GPVTG,195.24,T,,M,0.36,N,0.7,K,A*04
$GPGGA,134942.000,5540.2716,N,01231.2867,E,1,09,0.9,22.5,M,41.5,M,,0000*6C
$GPGSA,A,3,03,06,32,11,19,01,22,18,28,,,,1.9,0.9,1.6*3A
$GPGSV,3,1,12,19,64,183,27,11,55,273,31,22,50,071,21,01,38,274,32*73
$GPGSV,3,2,12,03,34,170,27,14,34,109,,32,27,212,33,06,23,158,31*7A
$GPGSV,3,3,12,28,22,319,12,18,14,055,18,09,07,032,,20,00,227,*77
$GPRMC,134942.000,A,5540.2716,N,01231.2867,E,0.24,161.88,041112,,,A*6C
$GPVTG,161.88,T,,M,0.24,N,0.4,K,A*09
$GPGGA,134943.000,5540.2715,N,01231.2867,E,1,08,1.0,22.8,M,41.5,M,,0000*6A
$GPGSA,A,3,03,06,32,11,19,01,22,18,,,,,2.1,1.0,1.8*3D
$GPRMC,134943.000,A,5540.2715,N,01231.2867,E,0.27,190.04,041112,,,A*67
$GPVTG,190.04,T,,M,0.27,N,0.5,K,A*01
$GPGGA,134944.000,5540.2715,N,01231.2866,E,1,08,1.0,23.1,M,41.5,M,,0000*64
$GPGSA,A,3,03,06,32,11,19,01,22,18,,,,,2.1,1.0,1.8*3D
$GPRMC,134944.000,A,5540.2715,N,01231.2866,E,0.31,200.85,041112,,,A*65
$GPVTG,200.85,T,,M,0.31,N,0.6,K,A*06
$GPGGA,134945.000,5540.2714,N,01231.2865,E,1,09,1.0,23.2,M,41.5,M,,0000*65
$GPGSA,A,3,03,06,32,11,19,14,01,22,18,,,,2.1,1.0,1.8*38
$GPRMC,134945.000,A,5540.2714,N,01231.2865,E,0.43,216.21,041112,,,A*6A
$GPVTG,216.21,T,,M,0.43,N,0.8,K,A*04
$GPGGA,134946.000,5540.2714,N,01231.2864,E,1,09,1.0,23.2,M,41.5,M,,0000*67
$GPGSA,A,3,03,06,32,11,19,14,01,22,18,,,,2.1,1.0,1.8*38
$GPRMC,134946.000,A,5540.2714,N,01231.2864,E,0.20,181.21,041112,,,A*60
$GPVTG,181.21,T,,M,0.20,N,0.4,K,A*00
$GPGGA,134947.000,5540.2714,N,01231.2865,E,1,08,1.1,23.3,M,41.5,M,,0000*66
$GPGSA,A,3,03,06,32,11,19,14,01,18,,,,,2.3,1.1,2.1*31
$GPGSV,3,1,12,19,64,183,33,11,55,273,31,22,50,071,08,01,38,274,30*7F
$GPGSV,3,2,12,03,34,170,28,14,34,109,19,32,27,212,24,06,23,158,26*7D
$GPGSV,3,3,12,28,22,319,,18,14,055,19,09,07,032,,20,00,227,*75
$GPRMC,134947.000,A,5540.2714,N,01231.2865,E,0.03,86.77,041112,,,A*54
$GPVTG,86.77,T,,M,0.03,N,0.1,K,A*31
$GPGGA,134948.000,5540.2715,N,01231.2866,E,1,08,1.1,23.4,M,41.5,M,,0000*6C
$GPGSA,A,3,03,06,32,11,19,14,01,18,,,,,2.3,1.1,2.1*31
$GPRMC,134948.000,A,5540.2715,N,01231.2866,E,0.24,177.80,041112,,,A*6B
$GPVTG,177.80,T,,M,0.24,N,0.4,K,A*06
$GPGGA,134949.000,5540.2710,N,01231.2860,E,1,08,1.1,24.7,M,41.5,M,,0000*6A
$GPGSA,A,3,03,06,32,11,19,14,01,18,,,,,2.3,1.1,2.1*31
$GPRMC,134949.000,A,5540.2710,N,01231.2860,E,0.36,37.39,041112,,,A*5D
$GPVTG,37.39,T,,M,0.36,N,0.7,K,A*31
$GPGGA,134950.000,5540.2710,N,01231.2859,E,1,08,1.1,24.4,M,41.5,M,,0000*6B
$GPGSA,A,3,03,06,32,11,19,14,01,18,,,,,2.3,1.1,2.1*31
$GPRMC,134950.000,A,5540.2710,N,01231.2859,E,0.17,72.29,041112,,,A*5C
$GPVTG,72.29,T,,M,0.17,N,0.3,K,A*36
$GPGGA,134951.000,5540.2706,N,01231.2857,E,1,08,1.1,24.4,M,41.5,M,,0000*63
$GPGSA,A,3,03,06,32,11,19,14,01,18,,,,,2.3,1.1,2.1*31
$GPRMC,134951.000,A,5540.2706,N,01231.2857,E,0.39,178.07,041112,,,A*6F
$GPVTG,178.07,T,,M,0.39,N,0.7,K,A*09
$GPGGA,134952.000,5540.2704,N,01231.2856,E,1,08,1.1,24.1,M,41.5,M,,0000*66
$GPGSA,A,3,03,06,32,11,19,14,01,18,,,,,2.3,1.1,2.1*31
$GPGSV,3,1,12,19,64,183,31,11,55,273,31,22,50,071,,01,38,274,26*72
$GPGSV,3,2,12,03,34,170,20,14,34,109,17,32,27,212,25,06,23,158,26*7A
$GPRMC,134952.000,A,5540.2704,N,01231.2856,E,0.54,173.62,041112,,,A*6C
$GPVTG,173.62,T,,M,0.54,N,1.0,K,A*0C
$GPGGA,134953.000,5540.2702,N,01231.2856,E,1,08,1.1,23.6,M,41.5,M,,0000*61
$GPGSA,A,3,03,06,32,11,19,14,01,18,,,,,2.3,1.1,2.1*31
$GPRMC,134953.000,A,5540.2702,N,01231.2856,E,0.23,176.86,041112,,,A*64
$GPVTG,176.86,T,,M,0.23,N,0.4,K,A*06
$GPGGA,134954.000,5540.2701,N,01231.2854,E,1,08,1.1,23.2,M,41.5,M,,0000*63
$GPGSA,A,3,03,06,32,11,19,14,01,18,,,,,2.3,1.1,2.1*31
$GPRMC,134954.000,A,5540.2701,N,01231.2854,E,0.37,228.71,041112,,,A*67
$GPVTG,228.71,T,,M,0.37,N,0.7,K,A*00
$GPGGA,134955.000,5540.2700,N,01231.2852,E,1,08,1.1,22.8,M,41.5,M,,0000*6E
$GPGSA,A,3,03,06,32,11,19,14,01,18,,,,,2.3,1.1,2.1*31
$GPRMC,134955.000,A,5540.2700,N,01231.2852,E,0.29,263.35,041112,,,A*61
$GPVTG,263.35,T,,M,0.29,N,0.5,K,A*02
$GPGGA,134956.000,5540.2697,N,01231.2847,E,1,09,1.0,22.5,M,41.5,M,,0000*6B
$GPGSA,A,3,03,06,32,11,19,14,01,22,18,,,,2.1,1.0,1.8*38
$GPRMC,134956.000,A,5540.2697,N,01231.2847,E,1.00,221.79,041112,,,A*6D
$GPVTG,221.79,T,,M,1.00,N,1.8,K,A*0A
$GPGGA,134957.000,5540.2692,N,01231.2838,E,1,09,1.0,22.2,M,41.5,M,,0000*60
$GPGSA,A,3,03,06,32,11,19,14,01,22,18,,,,2.1,1.0,1.8*38
$GPGSV,3,1,12,19,64,183,31,11,55,273,31,22,50,071,20,01,38,274,27*71
$GPGSV,3,2,12,03,34,170,19,14,34,109,16,32,27,212,27,06,23,158,27*72
$GPGSV,3,3,12,28,22,319,,18,14,055,18,09,07,032,,20,00,227,*74
$GPRMC,134957.000,A,5540.2692,N,01231.2838,E,1.02,214.74,041112,,,A*68
$GPVTG,214.74,T,,M,1.02,N,1.9,K,A*02
$GPGGA,134958.000,5540.2688,N,01231.2832,E,1,09,1.0,22.0,M,41.5,M,,0000*6C
$GPGSA,A,3,03,06,32,11,19,14,01,22,18,,,,2.1,1.0,1.8*38
$GPRMC,134958.000,A,5540.2688,N,01231.2832,E,0.60,207.01,041112,,,A*63
$GPVTG,207.01,T,,M,0.60,N,1.1,K,A*0F
$GPGGA,134959.000,5540.2685,N,01231.2830,E,1,09,1.0,22.1,M,41.5,M,,0000*63
$GPGSA,A,3,03,06,32,11,19,14,01,22,18,,,,2.1,1.0,1.8*38
$GPRMC,134959.000,A,5540.2685,N,01231.2830,E,1.36,213.18,041112,,,A*62
$GPVTG,213.18,T,,M,1.36,N,2.5,K,A*07
$GPGGA,135000.000,5540.2679,N,01231.2820,E,2,09,1.0,22.1,M,41.5,M,,0000*66
$GPGSA,A,3,03,06,32,11,19,14,01,22,18,,,,2.1,1.0,1.8*38
$GPRMC,135000.000,A,5540.2679,N,01231.2820,E,1.11,225.76,041112,,,D*69
$GPVTG,225.76,T,,M,1.11,N,2.0,K,D*0F
$GPGGA,135001.000,5540.2675,N,01231.2813,E,2,09,1.0,22.2,M,41.5,M,,0000*68
$GPGSA,A,3,03,06,32,11,19,14,01,22,18,,,,2.1,1.0,1.8*38
$GPRMC,135001.000,A,5540.2675,N,01231.2813,E,0.87,225.10,041112,,,D*6A
$GPVTG,225.10,T,,M,0.87,N,1.6,K,D*04
$GPGGA,135002.000,5540.2673,N,01231.2809,E,2,08,1.1,22.6,M,41.5,M,,0000*62
$GPGSA,A,3,03,06,32,11,19,14,01,18,,,,,2.3,1.1,2.1*31
$GPGSV,3,1,12,19,64,183,31,11,55,273,31,22,50,071,18,01,38,274,27*7A
$GPGSV,3,2,12,03,34,170,17,14,34,109,15,32,27,212,28,06,23,158,27*70
$GPGSV,3,3,12,28,22,319,,18,14,055,17,09,07,032,,20,00,227,*7B
$GPRMC,135002.000,A,5540.2673,N,01231.2809,E,1.51,228.37,041112,,,D*66
$GPVTG,228.37,T,,M,1.51,N,2.8,K,D*0B
$GPGGA,135003.000,5540.2671,N,01231.2804,E,2,08,1.1,23.0,M,41.5,M,,0000*6B
$GPGSA,A,3,03,06,32,11,19,14,01,18,,,,,2.3,1.1,2.1*31
$GPRMC,135003.000,A,5540.2671,N,01231.2804,E,1.57,236.24,041112,,,D*63
$GPVTG,236.24,T,,M,1.57,N,2.9,K,D*01
$GPGGA,135004.000,5540.2667,N,01231.2801,E,2,09,1.0,23.5,M,41.5,M,1.8,0000*4C
$GPGSA,A,3,03,06,32,11,19,14,01,22,18,,,,2.1,1.0,1.8*38
$GPRMC,135004.000,A,5540.2667,N,01231.2801,E,1.39,216.24,041112,,,D*6C
$GPVTG,216.24,T,,M,1.39,N,2.6,K,D*04
$GPGGA,135005.000,5540.2666,N,01231.2799,E,2,09,1.0,23.9,M,41.5,M,2.8,0000*4D
$GPGSA,A,3,03,06,32,11,19,14,01,22,18,,,,2.1,1.0,1.8*38
$GPRMC,135005.000,A,5540.2666,N,01231.2799,E,0.76,200.99,041112,,,D*69
$GPVTG,200.99,T,,M,0.76,N,1.4,K,D*0E
$GPGGA,135006.000,5540.2665,N,01231.2800,E,2,09,1.0,24.1,M,41.5,M,,0000*69
$GPGSA,A,3,03,06,32,11,19,14,01,22,18,,,,2.1,1.0,1.8*38
$GPRMC,135006.000,A,5540.2665,N,01231.2800,E,0.33,150.95,041112,,,D*6D
$GPVTG,150.95,T,,M,0.33,N,0.6,K,D*06
$GPGGA,135007.000,5540.2665,N,01231.2803,E,2,09,1.0,24.3,M,41.5,M,,0000*69
$GPGSA,A,3,03,06,32,11,19,14,01,22,18,,,,2.1,1.0,1.8*38
$GPGSV,3,1,12,19,64,183,31,11,55,273,31,22,50,071,13,01,38,274,28*7E
$GPGSV,3,2,12,03,34,170,16,14,34,108,14,32,27,212,28,06,23,158,27*71
$GPGSV,3,3,12,28,22,319,,18,14,055,17,09,07,032,,20,00,227,*7B
$GPRMC,135007.000,A,5540.2665,N,01231.2803,E,0.56,81.11,041112,,,D*5D
$GPVTG,81.11,T,,M,0.56,N,1.0,K,D*33
$GPGGA,135008.000,5540.2666,N,01231.2805,E,2,09,1.0,24.5,M,41.5,M,2.8,0000*41
$GPGSA,A,3,03,06,32,11,19,14,01,22,18,,,,2.1,1.0,1.8*38
$GPRMC,135008.000,A,5540.2666,N,01231.2805,E,0.75,66.84,041112,,,D*53
$GPVTG,66.84,T,,M,0.75,N,1.4,K,D*33
$GPGGA,135009.000,5540.2664,N,01231.2804,E,2,09,1.0,25.3,M,41.5,M,1.8,0000*47
$GPGSA,A,3,03,06,32,11,19,14,01,22,18,,,,2.1,1.0,1.8*38
$GPRMC,135009.000,A,5540.2664,N,01231.2804,E,0.48,72.10,041112,,,D*57
$GPVTG,72.10,T,,M,0.48,N,0.9,K,D*39
$GPGGA,135010.000,5540.2663,N,01231.2802,E,2,08,1.0,25.9,M,41.5,M,1.8,0000*45
$GPGSA,A,3,06,32,11,19,14,01,22,18,,,,,2.1,1.0,1.8*3B
$GPRMC,135010.000,A,5540.2663,N,01231.2802,E,0.33,80.42,041112,,,D*58
$GPVTG,80.42,T,,M,0.33,N,0.6,K,D*30
$GPGGA,135011.000,5540.2663,N,01231.2802,E,2,08,1.0,26.2,M,41.5,M,1.8,0000*4C
$GPGSA,A,3,06,32,11,19,14,01,22,18,,,,,2.1,1.0,1.8*3B
$GPRMC,135011.000,A,5540.2663,N,01231.2802,E,0.54,65.11,041112,,,D*55
$GPVTG,65.11,T,,M,0.54,N,1.0,K,D*3B
$GPGGA,135012.000,5540.2669,N,01231.2814,E,2,08,1.0,27.1,M,41.5,M,1.8,0000*40
$GPGSA,A,3,06,32,11,19,14,01,22,18,,,,,2.1,1.0,1.8*3B
$GPGSV,3,1,12,19,64,183,31,11,55,273,31,22,50,071,16,01,38,274,28*7B
$GPGSV,3,2,12,03,34,170,,14,34,108,14,32,27,212,29,06,23,158,26*76
$GPGSV,3,3,12,28,22,319,12,18,14,055,16,09,07,032,,20,00,227,*79
$GPVTG,67.56,T,,M,0.84,N,1.5,K,D*32
$GPGGA,135013.000,5540.2670,N,01231.2816,E,2,08,1.0,27.2,M,41.5,M,1.8,0000*48
$GPGSA,A,3,06,32,11,19,14,01,18,28,,,,,2.1,1.0,1.9*30
$GPRMC,135013.000,A,5540.2670,N,01231.2816,E,0.49,53.53,041112,,,D*5F
$GPVTG,53.53,T,,M,0.49,N,0.9,K,D*3C
$GPGGA,135014.000,5540.2672,N,01231.2817,E,2,08,1.0,27.3,M,41.5,M,1.8,0000*4D
$GPGSA,A,3,06,32,11,19,14,01,18,28,,,,,2.1,1.0,1.9*30
$GPRMC,135014.000,A,5540.2672,N,01231.2817,E,0.20,214.17,041112,,,D*65
$GPVTG,214.17,T,,M,0.20,N,0.4,K,D*0F
$GPGGA,135015.000,5540.2672,N,01231.2816,E,2,09,0.9,27.2,M,41.5,M,1.8,0000*45
$GPGSA,A,3,06,32,11,19,14,01,22,18,28,,,,1.9,0.9,1.6*3C
$GPRMC,135015.000,A,5540.2672,N,01231.2816,E,0.35,233.43,041112,,,D*65
$GPVTG,233.43,T,,M,0.35,N,0.7,K,D*0C
$GPGGA,135016.000,5540.2673,N,01231.2816,E,2,09,0.9,27.3,M,41.5,M,2.8,0000*45
$GPGSA,A,3,06,32,11,19,14,01,22,18,28,,,,1.9,0.9,1.6*3C
$GPRMC,135016.000,A,5540.2673,N,01231.2816,E,0.34,63.33,041112,,,D*56
$GPVTG,63.33,T,,M,0.34,N,0.6,K,D*3C
$GPGGA,135017.000,5540.2678,N,01231.2818,E,2,10,0.8,26.4,M,41.5,M,1.8,0000*4D
$GPGSA,A,3,03,06,32,11,19,14,01,22,18,28,,,1.8,0.8,1.6*3F
$GPGSV,3,1,12,19,64,183,30,11,55,273,31,22,50,071,17,01,38,274,28*7B
$GPGSV,3,2,12,14,34,108,14,03,34,170,15,32,27,212,29,06,23,158,25*71
$GPGSV,3,3,12,28,22,318,21,18,14,055,15,09,07,032,,20,00,227,*7B
$GPRMC,135017.000,A,5540.2678,N,01231.2818,E,0.76,48.18,041112,,,D*54
$GPVTG,48.18,T,,M,0.76,N,1.4,K,D*39
$GPGGA,135018.000,5540.2675,N,01231.2824,E,2,10,0.8,26.0,M,41.5,M,1.8,0000*44
$GPGSA,A,3,03,06,32,11,19,14,01,22,18,28,,,1.8,0.8,1.6*3F
$GPRMC,135018.000,A,5540.2675,N,01231.2824,E,0.41,127.89,041112,,,D*6D
$GPVTG,127.89,T,,M,0.41,N,0.8,K,D*00
$GPGGA,135019.000,5540.2674,N,01231.2830,E,2,10,0.8,25.8,M,41.5,M,2.8,0000*49
$GPGSA,A,3,03,06,32,11,19,14,01,22,18,28,,,1.8,0.8,1.6*3F
$GPRMC,135019.000,A,5540.2674,N,01231.2830,E,0.49,180.89,041112,,,D*6D
$GPVTG,180.89,T,,M,0.49,N,0.9,K,D*04
$GPGGA,135020.000,5540.2676,N,01231.2830,E,2,10,0.8,24.7,M,41.5,M,3.8,0000*4E
$GPGSA,A,3,03,06,32,11,19,14,01,22,18,28,,,1.8,0.8,1.6*3F
$GPRMC,135020.000,A,5540.2676,N,01231.2830,E,0.06,331.52,041112,,,D*60
$GPVTG,331.52,T,,M,0.06,N,0.1,K,D*09
$GPGGA,135021.000,5540.2679,N,01231.2834,E,2,10,0.8,24.3,M,41.5,M,4.8,0000*47
$GPGSA,A,3,03,06,32,11,19,14,01,22,18,28,,,1.8,0.8,1.6*3F
$GPRMC,135021.000,A,5540.2679,N,01231.2834,E,0.14,291.32,041112,,,D*64
$GPVTG,291.32,T,,M,0.14,N,0.3,K,D*05
$GPGGA,135022.000,5540.2681,N,01231.2835,E,2,09,0.9,24.9,M,41.5,M,5.8,0000*40
$GPGSA,A,3,03,06,32,11,19,01,22,18,28,,,,1.9,0.9,1.6*3A
$GPGSV,3,1,12,19,64,183,24,11,55,273,37,22,50,071,24,01,38,274,33*72
$GPGSV,3,2,12,14,34,108,10,03,34,170,21,32,27,212,21,06,23,158,19*75
$GPGSV,3,3,12,28,22,318,22,18,14,055,18,09,07,032,,20,00,227,*75
$GPRMC,135022.000,A,5540.2681,N,01231.2835,E,0.08,240.69,041112,,,D*6E
$GPVTG,240.69,T,,M,0.08,N,0.2,K,D*0B
$GPGGA,135023.000,5540.2680,N,01231.2830,E,2,09,0.9,24.0,M,41.5,M,6.8,0000*4F
$GPGSA,A,3,03,06,32,11,19,01,22,18,28,,,,1.9,0.9,1.6*3A
$GPRMC,135023.000,A,5540.2680,N,01231.2830,E,0.09,105.81,041112,,,D*6E
$GPVTG,105.81,T,,M,0.09,N,0.2,K,D*0E
$GPGGA,135024.000,5540.2686,N,01231.2828,E,2,10,0.8,24.1,M,41.5,M,7.8,0000*4E
$GPGSA,A,3,03,06,32,11,19,14,01,22,18,28,,,1.8,0.8,1.6*3F
$GPRMC,135024.000,A,5540.2686,N,01231.2828,E,0.11,312.51,041112,,,D*66
$GPVTG,312.51,T,,M,0.11,N,0.2,K,D*0E
$GPGGA,135025.000,5540.2684,N,01231.2820,E,2,10,0.8,24.4,M,41.5,M,8.8,0000*4F
$GPGSA,A,3,03,06,32,11,19,14,01,22,18,28,,,1.8,0.8,1.6*3F
$GPRMC,135025.000,A,5540.2684,N,01231.2820,E,0.47,277.63,041112,,,D*6D
$GPVTG,277.63,T,,M,0.47,N,0.9,K,D*05
$GPGGA,135026.000,5540.2685,N,01231.2818,E,2,09,0.9,25.5,M,41.5,M,9.8,0000*4E
$GPGSA,A,3,03,06,32,11,19,01,22,18,28,,,,1.9,0.9,1.6*3A
$GPRMC,135026.000,A,5540.2685,N,01231.2818,E,0.43,9.47,041112,,,D*6D
$GPVTG,9.47,T,,M,0.43,N,0.8,K,D*0D
$GPGGA,135027.000,5540.2684,N,01231.2817,E,2,09,0.9,26.1,M,41.5,M,10.8,0000*7E
$GPGSA,A,3,03,06,32,11,19,01,22,18,28,,,,1.9,0.9,1.6*3A
$GPGSV,3,1,12,19,64,183,25,11,55,273,28,22,50,071,15,01,38,274,34*78
$GPGSV,3,2,12,14,34,108,11,03,34,170,22,32,27,212,27,06,23,158,20*7B
$GPGSV,3,3,12,28,22,318,21,18,14,055,20,09,07,032,19,20,00,227,*75
$GPRMC,135027.000,A,5540.2684,N,01231.2817,E,0.14,115.81,041112,,,D*66
$GPVTG,115.81,T,,M,0.14,N,0.3,K,D*02
$GPGGA,135028.000,5540.2683,N,01231.2813,E,2,09,0.9,26.1,M,41.5,M,11.8,0000*73
$GPGSA,A,3,03,06,32,11,19,01,22,18,28,,,,1.9,0.9,1.6*3A
$GPRMC,135028.000,A,5540.2683,N,01231.2813,E,0.38,256.66,041112,,,D*69
$GPVTG,256.66,T,,M,0.38,N,0.7,K,D*05
$GPGGA,135029.000,5540.2681,N,01231.2809,E,2,09,0.9,26.3,M,41.5,M,12.8,0000*7A
$GPGSA,A,3,03,06,32,11,19,01,22,18,28,,,,1.9,0.9,1.6*3A
$GPRMC,135029.000,A,5540.2681,N,01231.2809,E,0.41,210.83,041112,,,D*66
$GPVTG,210.83,T,,M,0.41,N,0.8,K,D*0D
$GPGGA,135030.000,5540.2681,N,01231.2808,E,2,09,0.9,25.3,M,41.5,M,13.8,0000*71
$GPGSA,A,3,03,06,32,11,19,01,22,18,28,,,,1.9,0.9,1.6*3A
$GPRMC,135030.000,A,5540.2681,N,01231.2808,E,0.67,193.88,041112,,,D*68
$GPVTG,193.88,T,,M,0.67,N,1.2,K,D*01
$GPGGA,135031.000,5540.2681,N,01231.2806,E,2,09,0.9,25.5,M,41.5,M,14.8,0000*7F
$GPGSA,A,3,03,06,32,11,19,01,22,18,28,,,,1.9,0.9,1.6*3A
$GPRMC,135031.000,A,5540.2681,N,01231.2806,E,0.39,122.37,041112,,,D*62
$GPVTG,122.37,T,,M,0.39,N,0.7,K,D*00
$GPGGA,135032.000,5540.2681,N,01231.2808,E,2,09,0.9,25.0,M,41.5,M,15.8,0000*76
$GPGSA,A,3,03,06,32,11,19,01,22,18,28,,,,1.9,0.9,1.6*3A
$GPGSV,3,1,12,19,64,183,25,11,55,273,29,22,50,071,15,01,38,274,34*79
$GPGSV,3,2,12,14,34,108,,03,34,170,22,32,27,212,27,06,23,158,20*7B
$GPGSV,3,3,12,28,22,318,21,18,14,055,20,09,07,032,19,20,00,227,*75
$GPRMC,135032.000,A,5540.2681,N,01231.2808,E,1.02,46.30,041112,,,D*52
$GPVTG,46.30,T,,M,1.02,N,1.9,K,D*32
$GPGGA,135033.000,5540.2685,N,01231.2808,E,2,09,0.9,25.0,M,41.5,M,16.8,0000*70
$GPGSA,A,3,03,06,32,11,19,01,22,18,28,,,,1.9,0.9,1.6*3A
$GPRMC,135033.000,A,5540.2685,N,01231.2808,E,1.11,36.29,041112,,,D*5A
$GPVTG,36.29,T,,M,1.11,N,2.1,K,D*34
$GPGGA,135034.000,5540.2686,N,01231.2803,E,2,09,0.9,25.1,M,41.5,M,17.8,0000*7F
$GPGSA,A,3,03,06,32,11,19,01,22,18,28,,,,1.9,0.9,1.6*3A
$GPRMC,135034.000,A,5540.2686,N,01231.2803,E,0.33,275.14,041112,,,D*6F
$GPVTG,275.14,T,,M,0.33,N,0.6,K,D*0B
$GPGGA,135035.000,5540.2685,N,01231.2807,E,1,09,0.9,24.3,M,41.5,M,,0000*69
$GPGSA,A,3,03,06,32,11,19,01,22,18,28,,,,1.9,0.9,1.6*3A
$GPRMC,135035.000,A,5540.2685,N,01231.2807,E,0.27,2.12,041112,,,A*6D
$GPVTG,2.12,T,,M,0.27,N,0.5,K,A*0C
$GPGGA,135036.000,5540.2686,N,01231.2809,E,1,09,0.9,24.1,M,41.5,M,,0000*65
$GPGSA,A,3,03,06,32,11,19,01,22,18,28,,,,1.9,0.9,1.6*3A
$GPRMC,135036.000,A,5540.2686,N,01231.2809,E,0.40,56.21,041112,,,A*53
$GPVTG,56.21,T,,M,0.40,N,0.7,K,A*3E
$GPGGA,135037.000,5540.2686,N,01231.2809,E,1,09,0.9,23.9,M,41.5,M,,0000*6B
$GPGSA,A,3,03,06,32,11,19,01,22,18,28,,,,1.9,0.9,1.6*3A
$GPGSV,3,1,12,19,64,183,29,11,55,273,35,22,50,071,21,01,38,274,34*7F
$GPGSV,3,2,12,14,34,108,,03,34,170,23,32,27,212,31,06,23,158,25*78
$GPGSV,3,3,12,28,22,318,21,18,14,055,20,09,07,032,18,20,00,227,*74
$GPRMC,135037.000,A,5540.2686,N,01231.2809,E,0.04,317.34,041112,,,A*60
$GPGGA,135038.000,5540.2687,N,01231.2808,E,1,09,0.9,23.5,M,41.5,M,,0000*68
$GPGSA,A,3,03,06,32,11,19,01,22,18,28,,,,1.9,0.9,1.6*3A
$GPRMC,135038.000,A,5540.2687,N,01231.2808,E,0.31,137.29,041112,,,A*65
$GPVTG,137.29,T,,M,0.31,N,0.6,K,A*07
$GPGGA,135039.000,5540.2686,N,01231.2807,E,1,09,0.9,24.0,M,41.5,M,,0000*65
$GPGSA,A,3,03,06,32,11,19,01,22,18,28,,,,1.9,0.9,1.6*3A
$GPRMC,135039.000,A,5540.2686,N,01231.2807,E,0.49,93.28,041112,,,A*5B
$GPVTG,93.28,T,,M,0.49,N,0.9,K,A*39
$GPGGA,135040.000,5540.2686,N,01231.2809,E,1,09,0.9,23.3,M,41.5,M,,0000*61
$GPGSA,A,3,03,06,32,11,19,01,22,18,28,,,,1.9,0.9,1.6*3A
$GPRMC,135040.000,A,5540.2686,N,01231.2809,E,0.58,166.05,041112,,,A*6F
$GPVTG,166.05,T,,M,0.58,N,1.1,K,A*04
$GPGGA,135041.000,5540.2685,N,01231.2804,E,1,09,0.9,22.4,M,41.5,M,,0000*68
$GPGSA,A,3,03,06,32,11,19,01,22,18,28,,,,1.9,0.9,1.6*3A
$GPRMC,135041.000,A,5540.2685,N,01231.2804,E,0.20,228.09,041112,,,A*6A
$GPVTG,228.09,T,,M,0.20,N,0.4,K,A*0A
$GPGGA,135042.000,5540.2689,N,01231.2798,E,1,09,0.9,21.6,M,41.5,M,,0000*6C
$GPGSA,A,3,03,06,32,11,19,01,22,18,28,,,,1.9,0.9,1.6*3A
$GPGSV,3,1,12,19,64,183,29,11,55,273,35,22,50,071,21,01,38,274,35*7E
$GPGSV,3,2,12,14,34,108,,03,34,170,23,32,27,212,26,06,23,158,22*79
$GPGSV,3,3,12,28,22,318,21,18,14,055,20,09,07,032,18,20,00,227,*74
$GPRMC,135042.000,A,5540.2689,N,01231.2798,E,0.74,10.70,041112,,,A*59
$GPVTG,10.70,T,,M,0.74,N,1.4,K,A*3D
$GPGGA,135043.000,5540.2695,N,01231.2796,E,1,09,0.9,21.4,M,41.5,M,,0000*6C
$GPGSA,A,3,03,06,32,11,19,01,22,18,28,,,,1.9,0.9,1.6*3A
$GPRMC,135043.000,A,5540.2695,N,01231.2796,E,0.59,19.22,041112,,,A*5A
$GPVTG,19.22,T,,M,0.59,N,1.1,K,A*39
$GPGGA,135044.000,5540.2698,N,01231.2794,E,1,09,0.9,21.4,M,41.5,M,,0000*64
$GPGSA,A,3,03,06,32,11,19,01,22,18,28,,,,1.9,0.9,1.6*3A
$GPRMC,135044.000,A,5540.2698,N,01231.2794,E,0.64,19.29,041112,,,A*57
$GPVTG,19.29,T,,M,0.64,N,1.2,K,A*3F
$GPGGA,135045.000,5540.2699,N,01231.2790,E,1,09,0.9,21.5,M,41.5,M,,0000*61
$GPGSA,A,3,03,06,32,11,19,01,22,18,28,,,,1.9,0.9,1.6*3A
$GPRMC,135045.000,A,5540.2699,N,01231.2790,E,0.22,290.20,041112,,,A*6B
$GPVTG,290.20,T,,M,0.22,N,0.4,K,A*00
$GPGGA,135046.000,5540.2700,N,01231.2783,E,1,09,0.9,22.6,M,41.5,M,,0000*61
$GPGSA,A,3,03,06,32,11,19,01,22,18,28,,,,1.9,0.9,1.6*3A
$GPRMC,135046.000,A,5540.2700,N,01231.2783,E,0.16,352.94,041112,,,A*6C
$GPVTG,352.94,T,,M,0.16,N,0.3,K,A*00
$GPGGA,135047.000,5540.2701,N,01231.2777,E,1,09,0.9,22.7,M,41.5,M,,0000*6B
$GPGSA,A,3,03,06,32,11,19,01,22,18,28,,,,1.9,0.9,1.6*3A
$GPGSV,3,1,12,19,64,183,28,11,55,273,35,22,50,071,21,01,38,274,35*7F
$GPGSV,3,2,12,14,34,108,,03,34,170,23,32,27,212,25,06,23,158,22*7A
$GPGSV,3,3,12,28,22,318,22,18,14,055,20,09,07,032,18,20,00,227,*77
$GPRMC,135047.000,A,5540.2701,N,01231.2777,E,0.27,73.17,041112,,,A*5E
$GPVTG,73.17,T,,M,0.27,N,0.5,K,A*3F
$GPGGA,135048.000,5540.2703,N,01231.2774,E,1,09,0.9,22.4,M,41.5,M,,0000*66
$GPGSA,A,3,03,06,32,11,19,01,22,18,28,,,,1.9,0.9,1.6*3A
$GPRMC,135048.000,A,5540.2703,N,01231.2774,E,0.17,209.15,041112,,,A*6E
$GPVTG,209.15,T,,M,0.17,N,0.3,K,A*07
$GPGGA,135049.000,5540.2704,N,01231.2775,E,1,09,0.9,23.2,M,41.5,M,,0000*66
$GPGSA,A,3,03,06,32,11,19,01,22,18,28,,,,1.9,0.9,1.6*3A
$GPRMC,135049.000,A,5540.2704,N,01231.2775,E,0.30,47.94,041112,,,A*5D
$GPVTG,47.94,T,,M,0.30,N,0.5,K,A*35
$GPGGA,135050.000,5540.2705,N,01231.2778,E,1,09,0.9,22.9,M,41.5,M,,0000*68
$GPGSA,A,3,03,06,32,11,19,01,22,18,28,,,,1.9,0.9,1.6*3A
$GPRMC,135050.000,A,5540.2705,N,01231.2778,E,0.51,20.87,041112,,,A*5D
$GPVTG,20.87,T,,M,0.51,N,0.9,K,A*3D
$GPGGA,135051.000,5540.2706,N,01231.2782,E,1,09,0.9,22.8,M,41.5,M,,0000*6E
$GPGSA,A,3,03,06,32,11,19,01,22,18,28,,,,1.9,0.9,1.6*3A
$GPRMC,135051.000,A,5540.2706,N,01231.2782,E,0.84,21.89,041112,,,A*5D
$GPVTG,21.89,T,,M,0.84,N,1.5,K,A*37
$GPGGA,135052.000,5540.2709,N,01231.2786,E,1,09,0.9,22.9,M,41.5,M,,0000*67
$GPGSA,A,3,03,06,32,11,19,01,22,18,28,,,,1.9,0.9,1.6*3A
$GPGSV,3,1,12,19,64,183,28,11,55,273,34,22,50,071,23,01,38,274,35*7C
$GPGSV,3,2,12,14,34,108,,03,34,170,25,32,27,212,32,06,23,158,22*7A
$GPGSV,3,3,12,28,22,318,29,18,14,055,15,09,07,032,18,20,00,227,*7A
$GPRMC,135052.000,A,5540.2709,N,01231.2786,E,0.97,32.17,041112,,,A*52
$GPVTG,32.17,T,,M,0.97,N,1.8,K,A*3D
$GPGGA,135053.000,5540.2709,N,01231.2790,E,1,09,0.9,22.7,M,41.5,M,,0000*6F
$GPGSA,A,3,03,06,32,11,19,01,22,18,28,,,,1.9,0.9,1.6*3A
$GPRMC,135053.000,A,5540.2709,N,01231.2790,E,0.40,352.55,041112,,,A*6D
$GPVTG,352.55,T,,M,0.40,N,0.7,K,A*0A
$GPGGA,135054.000,5540.2711,N,01231.2788,E,1,08,0.9,22.7,M,41.5,M,,0000*69
$GPGSA,A,3,03,06,32,11,01,22,18,28,,,,,2.2,0.9,2.0*3F
$GPRMC,135054.000,A,5540.2711,N,01231.2788,E,0.66,18.08,041112,,,A*5B
$GPVTG,18.08,T,,M,0.66,N,1.2,K,A*3F
$GPGGA,135055.000,5540.2714,N,01231.2792,E,1,08,1.0,23.0,M,41.5,M,,0000*68
$GPGSA,A,3,03,06,32,11,19,01,18,28,,,,,2.2,1.0,2.0*3F
$GPRMC,135055.000,A,5540.2714,N,01231.2792,E,1.29,72.70,041112,,,A*5D
$GPVTG,72.70,T,,M,1.29,N,2.4,K,A*33
$GPGGA,135056.000,5540.2716,N,01231.2801,E,1,08,1.0,23.9,M,41.5,M,,0000*65
$GPGSA,A,3,03,06,32,11,19,01,18,28,,,,,2.2,1.0,2.0*3F
$GPRMC,135056.000,A,5540.2716,N,01231.2801,E,1.13,83.12,041112,,,A*5A
$GPVTG,83.12,T,,M,1.13,N,2.1,K,A*35
$GPGGA,135057.000,5540.2719,N,01231.2806,E,1,08,1.0,24.8,M,41.5,M,,0000*6A
$GPGSA,A,3,03,06,32,11,19,01,18,28,,,,,2.2,1.0,2.0*3F
$GPGSV,3,1,12,19,63,183,21,11,56,273,34,22,49,071,09,01,38,274,29*7C
$GPGSV,3,2,12,14,34,108,,03,34,170,23,32,27,212,19,06,23,158,19*7D
$GPGSV,3,3,12,28,22,318,28,18,14,055,14,09,07,032,18,20,01,227,*7B
$GPRMC,135057.000,A,5540.2719,N,01231.2806,E,0.91,63.99,041112,,,A*55
$GPGGA,135058.000,5540.2718,N,01231.2804,E,1,08,1.0,24.0,M,41.5,M,,0000*6E
$GPGSA,A,3,03,06,32,11,19,01,18,28,,,,,2.2,1.0,2.0*3F
$GPRMC,135058.000,A,5540.2718,N,01231.2804,E,0.61,69.91,041112,,,A*54
$GPVTG,69.91,T,,M,0.61,N,1.1,K,A*3D
$GPGGA,135059.000,5540.2719,N,01231.2803,E,1,08,1.0,23.3,M,41.5,M,,0000*6D
$GPGSA,A,3,03,06,32,11,19,01,18,28,,,,,2.2,1.0,2.0*3F
$GPRMC,135059.000,A,5540.2719,N,01231.2803,E,1.00,93.86,041112,,,A*56
$GPVTG,93.86,T,,M,1.00,N,1.8,K,A*31
$GPGGA,135100.000,5540.2721,N,01231.2816,E,1,09,0.9,23.6,M,41.5,M,,0000*63
$GPGSA,A,3,03,06,32,11,19,22,01,18,28,,,,1.9,0.9,1.6*3A
$GPRMC,135100.000,A,5540.2721,N,01231.2816,E,1.35,125.22,041112,,,A*60
$GPVTG,125.22,T,,M,1.35,N,2.5,K,A*0B
$GPGGA,135101.000,5540.2723,N,01231.2842,E,1,09,0.9,22.5,M,41.5,M,,0000*63
$GPGSA,A,3,03,06,32,11,19,22,01,18,28,,,,1.9,0.9,1.6*3A
$GPRMC,135101.000,A,5540.2723,N,01231.2842,E,1.39,105.01,041112,,,A*6D
$GPVTG,105.01,T,,M,1.39,N,2.6,K,A*07
$GPGGA,135102.000,5540.2726,N,01231.2862,E,1,09,0.9,21.4,M,41.5,M,,0000*65
$GPGSA,A,3,03,06,32,11,19,22,01,18,28,,,,1.9,0.9,1.6*3A
$GPGSV,3,1,12,19,63,183,22,11,56,273,23,22,49,071,33,01,38,274,18*72
$GPGSV,3,2,12,14,34,108,20,03,34,170,19,32,27,212,20,06,23,158,19*7C
$GPGSV,3,3,12,28,22,318,17,18,14,055,23,09,07,032,30,20,01,227,*79
$GPRMC,135102.000,A,5540.2726,N,01231.2862,E,1.78,103.36,041112,,,A*6E
$GPVTG,103.36,T,,M,1.78,N,3.3,K,A*04
$GPGGA,135103.000,5540.2729,N,01231.2874,E,1,10,0.8,21.5,M,41.5,M,,0000*64
$GPGSA,A,3,03,06,32,11,19,22,01,14,18,28,,,1.8,0.8,1.6*3F
$GPRMC,135103.000,A,5540.2729,N,01231.2874,E,1.28,115.92,041112,,,A*6B
$GPVTG,115.92,T,,M,1.28,N,2.4,K,A*0E
$GPGGA,135104.000,5540.2730,N,01231.2885,E,1,10,0.8,21.0,M,41.5,M,,0000*60
$GPGSA,A,3,03,06,32,11,19,22,01,14,18,28,,,1.8,0.8,1.6*3F
$GPRMC,135104.000,A,5540.2730,N,01231.2885,E,1.28,93.20,041112,,,A*5C
$GPVTG,93.20,T,,M,1.28,N,2.4,K,A*38
$GPGGA,135105.000,5540.2727,N,01231.2893,E,1,10,0.8,21.2,M,41.5,M,,0000*62
$GPGSA,A,3,03,06,32,11,19,22,01,14,18,28,,,1.8,0.8,1.6*3F
$GPRMC,135105.000,A,5540.2727,N,01231.2893,E,1.78,116.19,041112,,,A*6F
$GPVTG,116.19,T,,M,1.78,N,3.3,K,A*0D
$GPGGA,135106.000,5540.2726,N,01231.2901,E,1,10,0.8,22.4,M,41.5,M,,0000*6F
$GPGSA,A,3,03,06,32,11,19,22,01,14,18,28,,,1.8,0.8,1.6*3F
$GPRMC,135106.000,A,5540.2726,N,01231.2901,E,1.64,107.50,041112,,,A*67
$GPVTG,107.50,T,,M,1.64,N,3.0,K,A*0E
$GPGGA,135107.000,5540.2723,N,01231.2916,E,1,10,0.8,22.3,M,41.5,M,,0000*6A
$GPGSA,A,3,03,06,32,11,19,22,01,14,18,28,,,1.8,0.8,1.6*3F
$GPGSV,3,1,12,19,63,183,21,11,56,273,26,22,49,071,34,01,38,274,21*79
$GPGSV,3,2,12,14,34,108,29,03,34,170,19,32,27,212,17,06,23,158,18*70
$GPGSV,3,3,12,28,22,318,26,18,14,055,22,09,07,032,24,20,01,227,*7F
$GPRMC,135107.000,A,5540.2723,N,01231.2916,E,1.95,108.05,041112,,,A*64
$GPVTG,108.05,T,,M,1.95,N,3.6,K,A*09
$GPGGA,135108.000,5540.2723,N,01231.2925,E,1,10,0.8,22.4,M,41.5,M,,0000*62
$GPGSA,A,3,03,06,32,11,19,22,01,14,18,28,,,1.8,0.8,1.6*3F
$GPRMC,135108.000,A,5540.2723,N,01231.2925,E,1.82,96.45,041112,,,A*5F
$GPVTG,96.45,T,,M,1.82,N,3.4,K,A*3F
$GPGGA,135109.000,5540.2722,N,01231.2941,E,1,10,0.8,22.0,M,41.5,M,,0000*64
$GPGSA,A,3,03,06,32,11,19,22,01,14,18,28,,,1.8,0.8,1.6*3F
$GPRMC,135109.000,A,5540.2722,N,01231.2941,E,2.15,113.85,041112,,,A*60
$GPVTG,113.85,T,,M,2.15,N,4.0,K,A*01
$GPGGA,135110.000,5540.2720,N,01231.2955,E,1,10,0.8,21.8,M,41.5,M,,0000*60
$GPGSA,A,3,03,06,32,11,19,22,01,14,18,28,,,1.8,0.8,1.6*3F
$GPRMC,135110.000,A,5540.2720,N,01231.2955,E,2.55,126.33,041112,,,A*60
$GPVTG,126.33,T,,M,2.55,N,4.7,K,A*09
$GPGGA,135111.000,5540.2716,N,01231.2970,E,1,10,0.8,22.1,M,41.5,M,,0000*69
$GPGSA,A,3,03,06,32,11,19,22,01,14,18,28,,,1.8,0.8,1.6*3F
$GPRMC,135111.000,A,5540.2716,N,01231.2970,E,2.43,116.83,041112,,,A*6C
$GPVTG,116.83,T,,M,2.43,N,4.5,K,A*04
$GPGGA,135112.000,5540.2712,N,01231.2985,E,1,10,0.8,21.8,M,41.5,M,,0000*6E
$GPGSA,A,3,03,06,32,11,19,22,01,14,18,28,,,1.8,0.8,1.6*3F
$GPGSV,3,1,12,19,63,183,20,11,56,273,21,22,49,071,36,01,38,274,21*7D
$GPGSV,3,2,12,14,34,108,33,03,34,170,22,32,27,212,18,06,23,158,24*73
$GPGSV,3,3,12,28,22,318,19,18,14,055,29,09,07,032,25,20,01,227,*79
$GPRMC,135112.000,A,5540.2712,N,01231.2985,E,2.49,130.81,041112,,,A*6D
$GPVTG,130.81,T,,M,2.49,N,4.6,K,A*0B
$GPGGA,135113.000,5540.2708,N,01231.2997,E,1,10,0.8,21.7,M,41.5,M,,0000*68
$GPGSA,A,3,03,06,32,11,19,22,01,14,18,28,,,1.8,0.8,1.6*3F
$GPRMC,135113.000,A,5540.2708,N,01231.2997,E,2.88,132.71,041112,,,A*64
$GPVTG,132.71,T,,M,2.88,N,5.3,K,A*0F
$GPGGA,135114.000,5540.2703,N,01231.3008,E,1,10,0.8,21.8,M,41.5,M,,0000*65
$GPGSA,A,3,03,06,32,11,19,22,01,14,18,28,,,1.8,0.8,1.6*3F
$GPRMC,135114.000,A,5540.2703,N,01231.3008,E,2.95,131.17,041112,,,A*69
$GPVTG,131.17,T,,M,2.95,N,5.5,K,A*06
$GPGGA,135115.000,5540.2698,N,01231.3016,E,1,10,0.8,23.4,M,41.5,M,,0000*66
$GPGSA,A,3,03,06,32,11,19,22,01,14,18,28,,,1.8,0.8,1.6*3F
$GPRMC,135115.000,A,5540.2698,N,01231.3016,E,2.42,135.30,041112,,,A*6F
$GPVTG,135.30,T,,M,2.42,N,4.5,K,A*0C
$GPGGA,135116.000,5540.2693,N,01231.3024,E,1,10,0.8,23.2,M,41.5,M,,0000*69
$GPGSA,A,3,03,06,32,11,19,22,01,14,18,28,,,1.8,0.8,1.6*3F
$GPRMC,135116.000,A,5540.2693,N,01231.3024,E,2.10,135.68,041112,,,A*6C
$GPVTG,135.68,T,,M,2.10,N,3.9,K,A*0D
$GPGGA,135117.000,5540.2690,N,01231.3032,E,1,10,0.8,23.1,M,41.5,M,,0000*6F
$GPGSA,A,3,03,06,32,11,19,22,01,14,18,28,,,1.8,0.8,1.6*3F
$GPGSV,3,1,12,19,63,183,24,11,56,273,19,22,49,071,36,01,38,274,19*79
$GPGSV,3,2,12,14,34,108,34,03,34,170,25,32,27,212,18,06,23,158,22*75
$GPGSV,3,3,12,28,22,318,19,18,14,055,30,09,07,032,17,20,01,227,*70
$GPRMC,135117.000,A,5540.2690,N,01231.3032,E,1.90,135.25,041112,,,A*6B
$GPGGA,135118.000,5540.2685,N,01231.3039,E,1,10,0.8,23.8,M,41.5,M,,0000*66
$GPGSA,A,3,03,06,32,11,19,22,01,14,18,28,,,1.8,0.8,1.6*3F
$GPRMC,135118.000,A,5540.2685,N,01231.3039,E,1.99,132.12,041112,,,A*61
$GPVTG,132.12,T,,M,1.99,N,3.7,K,A*0B
$GPGGA,135119.000,5540.2681,N,01231.3046,E,1,10,0.8,24.8,M,41.5,M,,0000*6C
$GPGSA,A,3,03,06,32,11,19,22,01,14,18,28,,,1.8,0.8,1.6*3F
$GPRMC,135119.000,A,5540.2681,N,01231.3046,E,2.18,132.04,041112,,,A*61
$GPVTG,132.04,T,,M,2.18,N,4.0,K,A*06
$GPGGA,135120.000,5540.2678,N,01231.3054,E,1,10,0.8,25.9,M,41.5,M,,0000*63
$GPGSA,A,3,03,06,32,11,19,22,01,14,18,28,,,1.8,0.8,1.6*3F
$GPRMC,135120.000,A,5540.2678,N,01231.3054,E,2.35,127.14,041112,,,A*64
$GPVTG,127.14,T,,M,2.35,N,4.4,K,A*08
$GPGGA,135121.000,5540.2673,N,01231.3069,E,1,10,0.8,27.1,M,41.5,M,,0000*6D
$GPGSA,A,3,03,06,32,11,19,22,01,14,18,28,,,1.8,0.8,1.6*3F
$GPRMC,135121.000,A,5540.2673,N,01231.3069,E,2.30,125.44,041112,,,A*62
$GPVTG,125.44,T,,M,2.30,N,4.3,K,A*0D
$GPGGA,135122.000,5540.2666,N,01231.3077,E,1,10,0.8,26.9,M,41.5,M,,0000*6C
$GPGSA,A,3,03,06,32,11,19,22,01,14,18,28,,,1.8,0.8,1.6*3F
$GPGSV,3,1,12,19,63,183,23,11,56,273,20,22,49,071,37,01,39,274,18*75
$GPGSV,3,2,12,14,34,108,34,03,33,170,26,32,28,212,18,06,22,158,21*7C
$GPGSV,3,3,12,28,22,318,19,18,13,055,34,09,07,031,19,20,01,227,*7E
$GPRMC,135122.000,A,5540.2666,N,01231.3077,E,2.45,132.44,041112,,,A*6E
$GPVTG,132.44,T,,M,2.45,N,4.5,K,A*0F
$GPGGA,135123.000,5540.2660,N,01231.3086,E,1,10,0.8,26.8,M,41.5,M,,0000*64
$GPGSA,A,3,03,06,32,11,19,22,01,14,18,28,,,1.8,0.8,1.6*3F
$GPRMC,135123.000,A,5540.2660,N,01231.3086,E,2.67,130.92,041112,,,A*6E
$GPVTG,130.92,T,,M,2.67,N,4.9,K,A*0A
$GPGGA,135124.000,5540.2655,N,01231.3097,E,1,10,0.8,26.7,M,41.5,M,,0000*6A
